Country,Province,City,Pop.,ABBR,Rent,Total COL,Sal,QOL,Prov. ABBR,Lat,Long,Snow Days/Y,Snow Fall/Y,Total Temps Ave,Summer Temps Ave,Spring Temps Ave,Winter Temps Ave,Fall Temps Ave,Highest 3 Year,Lowest 3 Year,Most Days,Sunny Days/Y,Hours Rained/Y,Winter Daylight
Belgium,Brussels,Anderlecht,"125,883",BE,1033,1889,3040,76,,50.8390983,4.3296526,14.0,18.503333333333337,12.018521897810219,18.968840579710143,11.117391304347827,5.111439114391144,12.75934065934066,17.7,-0.7,Overcast,5.333333333333333,1766.0,8.829924005740057
Belgium,Flanders,Antwerp,"542,417",BE,909,1818,2918,91,,51.2211097,4.3997081,17.0,18.456666666666667,11.929379562043795,18.856159420289856,11.048913043478262,5.128782287822879,12.567399267399267,17.3,-1.5,Overcast,5.666666666666667,1755.3333333333333,8.78566265887659
Belgium,Flanders,Bruges,"119,748",BE,1005,1868,2486,82,,51.2085526,3.226772,13.0,16.00666666666667,11.602281021897811,17.918478260869566,10.377898550724638,5.450184501845018,12.561538461538461,17.2,-3.5,Overcast,5.666666666666667,1808.0,8.78566265887659
Belgium,Brussels,Brussels,"195,546",BE,1133,2028,3458,91,,50.8465573,4.351697,14.0,18.503333333333337,11.972080291970805,18.92463768115942,11.070289855072463,5.062361623616236,12.713919413919413,17.7,-0.7,Overcast,5.333333333333333,1766.0,8.829924005740057
Belgium,Wallonia,Charleroi,"203,950",BE,928,1718,2345,87,,50.4116233,4.444528,17.0,16.916666666666668,11.44844890510949,18.418115942028983,10.495652173913042,4.552767527675276,12.21062271062271,17.2,-1.8,Overcast,6.0,1873.0,8.881990590405904
Belgium,Flanders,Ghent,"269,191",BE,953,1811,2819,87,,51.0538286,3.7250121,12.0,16.963333333333335,11.873266423357663,18.718478260869563,10.877898550724638,5.229889298892989,12.553846153846154,17.5,-2.0,Overcast,4.333333333333333,1682.6666666666667,8.803464370643706
Belgium,Wallonia,Liège,"194,994",BE,812,1599,3134,74,,50.6450944,5.5736112,21.0,31.359999999999996,11.938321167883212,19.118840579710145,11.019927536231883,4.866789667896678,12.627106227106227,17.7,-1.9,Overcast,8.666666666666666,1994.3333333333333,8.856097755227553
Belgium,Flemish,Leuven,"103,868",BE,1100,1867,3283,91,,50.879202,4.7011675,16.333333333333332,20.673333333333332,11.861770072992702,18.79891304347826,10.859782608695653,5.026937269372694,12.646153846153846,18.1,-1.3,Overcast,6.333333333333333,1692.6666666666667,8.829924005740057
Belgium,Wallonia,Namur,"114,007",BE,801,1588,2322,73,,50.4665284,4.8661892,18.666666666666668,22.143333333333334,11.665967153284672,18.584420289855075,10.722101449275362,4.769741697416974,12.471428571428572,17.9,-2.9,Overcast,7.0,1972.3333333333333,8.881990590405904
Belgium,Brussels,Schaerbeek,"129,853",BE,1022,1854,3204,77,,50.8676041,4.3737121,14.0,18.503333333333337,11.947171532846715,18.90072463768116,11.046014492753622,5.0380073800738,12.686813186813186,17.7,-0.7,Overcast,5.333333333333333,1766.0,8.829924005740057
Austria,Styria,Graz,"305,323",AT,788,1685,2905,87,,47.0708678,15.4382786,21.666666666666668,24.476666666666663,10.817153284671534,20.69855072463768,10.398550724637682,1.3597785977859778,10.63846153846154,18.4,-6.5,Overcast,9.666666666666666,1268.6666666666667,9.262364052890527
Austria,Tyrol,Innsbruck,"132,471",AT,1084,1917,2998,84,,47.2654296,11.3927685,86.33333333333333,218.98333333333332,11.11514598540146,19.91304347826087,10.256521739130434,2.562730627306273,11.578388278388278,18.0,-8.7,Overcast,6.333333333333333,2198.6666666666665,9.240275338253381
Austria,Carinthia,Klagenfurt,"105,280",AT,857,1683,2216,80,,46.623943,14.3075976,29.666666666666668,53.43333333333334,10.661222627737226,20.68804347826087,10.1,0.8726937269372693,10.808424908424907,15.7,-4.9,Overcast,2.3333333333333335,1413.6666666666667,9.30594130791308
Austria,Upper Austria,Linz,"213,574",AT,852,1760,2672,83,,48.3059078,14.286198,37.0,41.58,11.492518248175182,20.709782608695654,10.842391304347826,2.6841328413284136,11.575091575091575,15.5,-3.5,Overcast,15.666666666666666,1606.3333333333333,9.126677777777779
Austria,Salzburg,Salzburg,"157,652",AT,1057,1904,3419,85,,47.7981346,13.0464806,50.666666666666664,109.92333333333333,10.780200729927008,19.549637681159425,10.005797101449277,2.391512915129151,11.024542124542126,16.8,-7.2,Overcast,11.666666666666666,2154.3333333333335,9.187930822058217
Austria,Vienna,Vienna,"2,028,399",AT,1089,2132,3535,95,,48.2083537,16.3725042,22.666666666666668,21.95666666666666,12.276094890510949,22.157246376811592,11.539855072463768,3.098523985239852,12.14102564102564,16.4,-3.7,Overcast,14.0,1206.3333333333333,9.1421381201312
Belarus,Mogilev,Babruysk,"208,611",BY,131,406,473,42,,53.1449683,29.2281209,66.0,112.72333333333334,8.943339416058395,19.41485507246377,8.791666666666664,-1.6612546125461254,9.036996336996337,11.2,-7.6,Overcast,11.333333333333334,1508.0,8.52896323288233
Belarus,Brest,Baranavichy,"172,150",BY,184,517,521,41,,53.1322925,26.0184156,63.333333333333336,86.12333333333333,8.886587591240877,18.705434782608695,8.669927536231885,-0.922509225092251,8.916117216117216,13.5,-10.5,Overcast,7.333333333333333,1482.3333333333333,8.52896323288233
Belarus,Minsk,Barysaw,"136,409",BY,273,561,576,48,,54.2240665,28.5117849,74.66666666666667,122.40666666666668,8.325547445255474,18.61014492753623,8.089855072463768,-2.1118081180811807,8.527106227106227,9.7,-11.7,Overcast,7.333333333333333,1683.6666666666667,8.36477200697007
Belarus,Brest,Brest,"342,461",BY,203,528,475,42,,52.093751,23.6851851,50.666666666666664,63.98,10.093521897810218,19.8963768115942,9.709420289855073,0.5955719557195571,9.999633699633698,15.7,-8.5,Overcast,8.0,1429.0,8.664109143091428
Belarus,Gomel,Gomel,"501,802",BY,188,475,441,61,,52.4238936,31.0131698,66.0,102.85333333333331,9.086131386861313,19.611231884057972,9.050362318840579,-1.7413284132841327,9.229670329670329,11.1,-8.7,Overcast,13.0,1524.6666666666667,8.626254520295202
Belarus,Grodno,Grodno,"358,717",BY,82,349,561,46,,53.6834599,23.8342648,58.0,64.00333333333333,9.538503649635038,19.21014492753623,9.053260869565218,0.12398523985239852,9.596703296703296,14.7,-8.5,Overcast,6.0,1432.0,8.448241512915128
Belarus,City of Minsk,Minsk,"1,995,471",BY,356,735,549,69,,53.9024716,27.5618225,73.0,112.46666666666668,8.393521897810219,18.758695652173913,8.123913043478261,-1.996309963099631,8.5007326007326,10.6,-12.4,Overcast,6.666666666666667,1588.6666666666667,8.417271750717507
Belarus,Mogilev,Mogilev,"353,338",BY,210,545,568,45,,53.9090245,30.3429838,69.66666666666667,130.83,8.299726277372264,18.96666666666667,8.164492753623188,-2.615867158671587,8.487912087912088,8.4,-10.5,Overcast,7.666666666666667,1635.3333333333333,8.417271750717507
Belarus,Brest,Pinsk,"124,613",BY,118,426,522,40,,52.1113862,26.1025274,54.666666666666664,74.59666666666668,9.64771897810219,19.495289855072468,9.390942028985506,-0.15608856088560885,9.683516483516483,14.0,-9.1,Overcast,9.333333333333334,1397.6666666666667,8.664109143091428
Belarus,Vitebsk,Vitebsk,"359,148",BY,109,293,537,47,,55.1930197,30.2070437,86.33333333333333,137.3166666666667,7.898722627737226,18.338768115942027,7.714492753623188,-2.7981549815498155,8.148717948717948,10.0,-12.5,Overcast,7.0,1845.3333333333333,8.21152918204182
Bulgaria,Burgas,Burgas,"194,993",BG,398,848,1029,73,,42.4936616,27.4721276,9.666666666666666,14.280000000000001,14.83184306569343,24.840217391304346,12.594202898550725,6.026937269372693,15.716117216117215,21.4,-1.8,Overcast,27.666666666666668,925.3333333333334,9.696151650266502
Bulgaria,Pleven,Pleven,"110,843",BG,264,667,966,67,,43.4809895,24.6060665,15.666666666666666,40.74,13.763138686131386,24.94710144927536,12.376086956521739,3.524723247232472,14.021978021978024,21.2,-3.5,Overcast,32.0,903.6666666666666,9.608887976629768
Bulgaria,Plovdiv,Plovdiv,"321,824",BG,372,836,1092,71,,42.1418541,24.7499297,9.333333333333334,21.956666666666667,15.437317518248175,26.81268115942029,13.579710144927537,5.479335793357934,15.700000000000001,21.0,-2.3,Overcast,35.666666666666664,851.0,9.726573144731448
Bulgaria,Ruse,Ruse,"139,226",BG,343,777,991,67,,43.8480413,25.9542057,16.333333333333332,32.199999999999996,14.558394160583942,25.831521739130434,13.11123188405797,4.2557195571955715,14.851648351648352,22.3,-1.6,Overcast,29.333333333333332,928.3333333333334,9.576944290692905
Bulgaria,Sliven,Sliven,"111,392",BG,214,591,1380,57,,42.64169,26.2634283,12.333333333333334,25.176666666666673,14.376642335766425,25.065942028985507,12.493840579710145,4.991881918819189,14.78937728937729,20.9,-1.4,Overcast,24.333333333333332,981.6666666666666,9.683875912259122
Bulgaria,Sofia City,Sofia,"1,280,334",BG,629,1244,1061,78,,42.6977028,23.3217359,23.333333333333332,36.026666666666664,12.383120437956206,23.1,10.910144927536233,2.726937269372694,12.623076923076923,19.6,-5.6,Overcast,28.333333333333332,1007.6666666666666,9.677714452644526
Bulgaria,Stara Zagora,Stara Zagora,"142,746",BG,291,703,1228,70,,42.4248111,25.6257479,11.0,22.51666666666667,14.157664233576641,25.219565217391306,12.453985507246378,4.287084870848708,14.494871794871793,20.3,-3.7,Overcast,27.666666666666668,909.3333333333334,9.702266635916356
Bulgaria,Varna,Varna,"319,900",BG,479,1039,1123,76,,43.2073873,27.9166653,11.0,18.596666666666668,14.453649635036495,24.176811594202896,12.219565217391306,5.897047970479704,15.376190476190478,20.3,-1.0,Overcast,24.0,945.6666666666666,9.634142261172611
Albania,Tirana,Tirana,"418,495",AL,630,1294,803,72,,41.3281482,19.8184435,0.3333333333333333,0.023333333333333334,16.861861313868612,26.136594202898554,14.835144927536232,8.906273062730628,17.43150183150183,23.7,-1.8,Overcast,53.666666666666664,1126.3333333333333,9.798911961869623
Albania,Durrës,Durrës,"113,249",AL,418,945,824,57,,41.313255,19.4462348,0.6666666666666666,0.21,17.353467153284672,25.851086956521737,15.260144927536233,9.920295202952028,18.25750915750916,22.7,2.4,Overcast,51.333333333333336,1210.0,9.798911961869623
France,Provence-Alpes-Côte d'Azur,Aix-en-Provence,"147,478",FR,966,1700,2167,84,PAC,43.5298424,5.4474738,1.3333333333333333,2.6599999999999997,14.930109489051096,24.105434782608697,13.341304347826087,6.888560885608856,15.242857142857144,18.3,-2.3,Overcast,31.0,850.3333333333334,9.603443921689216
France,Hauts-de-France,Amiens,"133,625",FR,614,1300,3716,73,HDF,49.8941708,2.2956951,10.0,10.850000000000001,12.025912408759126,18.67355072463768,10.93514492753623,5.511439114391144,12.874725274725275,17.0,-1.5,Overcast,6.333333333333333,1606.6666666666667,8.949709358343584
France,Pays de la Loire,Angers,"157,175",FR,974,1715,3044,83,PDL,47.4739884,-0.5515588,3.3333333333333335,4.503333333333333,13.248266423357665,20.257608695652173,12.038405797101449,6.646125461254612,13.938827838827839,18.1,-0.5,Overcast,11.0,1465.3333333333333,9.217982144321441
France,Auvergne-Rhône-Alpes,Annecy,"131,715",FR,919,1727,2409,82,ARA,45.8992348,6.1288847,21.0,34.44,11.741423357664234,21.131521739130438,10.335869565217392,3.525461254612546,11.824908424908424,15.5,-3.0,Overcast,9.0,1615.3333333333333,9.383835547355472
France,Île-de-France,Argenteuil,"107,221",FR,1175,1942,3285,79,IDF,48.9479069,2.2481797,8.0,8.75,12.64653284671533,19.934782608695652,11.64927536231884,5.715129151291514,13.167032967032968,17.1,-3.8,Overcast,7.666666666666667,1612.6666666666667,9.055847734727347
France,Bourgogne-Franche-Comté,Besançon,"119,198",FR,563,1257,2245,82,BFC,47.2380222,6.0243622,16.333333333333332,19.833333333333332,12.29698905109489,20.54855072463768,11.227173913043478,4.638007380073801,12.639194139194139,17.8,-6.5,Overcast,13.333333333333334,2061.0,9.247661193111929
France,Nouvelle-Aquitaine,Bordeaux,"261,804",FR,845,1680,2701,86,NAQ,44.841225,-0.5800364,3.0,1.4233333333333336,14.564507299270074,21.747826086956522,13.423913043478262,7.715129151291514,15.254578754578755,20.1,-0.6,Overcast,15.666666666666666,1595.0,9.486144331693318
France,Île-de-France,Boulogne-Billancourt,"119,808",FR,1498,2281,3577,93,IDF,48.8356649,2.240206,8.333333333333334,9.1,12.854470802919709,20.25,11.821014492753624,5.883025830258302,13.342857142857142,17.0,-2.2,Overcast,10.333333333333334,1555.3333333333333,9.071768870438707
France,Brittany,Brest,"139,619",FR,513,1202,2533,81,BRE,48.3905283,-4.4860088,7.666666666666667,2.59,12.648631386861313,17.15,11.366666666666665,8.22619926199262,13.783882783882785,16.0,1.3,Light Drizzle,5.666666666666667,2442.6666666666665,9.11890962484625
France,Normandy,Caen,"108,200",FR,727,1405,2597,68,NOR,49.1813403,-0.3635615,9.0,13.276666666666669,12.388959854014598,18.25144927536232,11.198550724637682,6.538745387453875,13.472893772893775,18.1,0.3,Overcast,8.0,1626.6666666666667,9.031766041410412
France,Auvergne-Rhône-Alpes,Clermont-Ferrand,"147,327",FR,734,1472,2649,80,ARA,45.7774551,3.0819427,20.333333333333332,20.276666666666667,12.69425182481752,20.60072463768116,11.316304347826087,5.335055350553506,13.3992673992674,18.9,-1.0,Overcast,14.0,1616.6666666666667,9.390792978679785
France,Bourgogne-Franche-Comté,Dijon,"159,346",FR,719,1483,2282,81,BFC,47.3215806,5.0414701,11.0,11.643333333333336,12.288594890510948,20.6036231884058,11.205434782608695,4.599261992619926,12.61025641025641,15.1,-3.6,Overcast,9.333333333333334,1524.6666666666667,9.232867435424355
France,Auvergne-Rhône-Alpes,Grenoble,"157,477",FR,771,1525,2798,86,ARA,45.1875602,5.7357819,34.666666666666664,77.32666666666667,14.04133211678832,22.87355072463768,12.73876811594203,6.047601476014761,14.364102564102565,20.7,-0.9,Overcast,11.0,1866.6666666666667,9.452522662976632
France,Normandy,Le Havre,"166,058",FR,571,1256,2138,68,NOR,49.4938975,0.1079732,12.333333333333334,15.563333333333334,12.555291970802918,18.170652173913044,11.307246376811595,6.82730627306273,13.826007326007327,18.0,0.9,Overcast,7.666666666666667,2167.6666666666665,8.99108753587536
France,Hauts-de-France,Lille,"236,710",FR,837,1651,3036,85,HDF,50.6365654,3.0635282,10.0,14.490000000000002,11.830018248175183,18.591304347826085,10.765217391304347,5.22140221402214,12.631135531135532,17.2,-0.3,Overcast,5.666666666666667,1662.6666666666667,8.856097755227553
France,Nouvelle-Aquitaine,Limoges,"129,760",FR,541,1250,2290,78,NAQ,45.8354243,1.2644847,8.666666666666666,10.429999999999998,12.811952554744526,20.428623188405798,11.46340579710145,5.7988929889298895,13.436630036630035,19.8,-3.0,Overcast,20.333333333333332,2083.6666666666665,9.383835547355472
France,Auvergne-Rhône-Alpes,Lyon,"522,250",FR,831,1693,3043,91,ARA,45.7578137,4.8320114,9.0,5.623333333333334,13.704288321167885,22.882971014492753,12.470652173913043,5.365682656826569,13.94945054945055,17.1,-3.0,Overcast,12.333333333333334,1278.0,9.39773086305863
France,Pays de la Loire,Le Mans,"145,004",FR,588,1344,2913,68,PDL,48.0073849,0.1967849,5.333333333333333,6.2299999999999995,12.690145985401461,19.84927536231884,11.555797101449276,5.93690036900369,13.302930402930402,18.1,-3.1,Overcast,9.0,1513.6666666666667,9.165143696186963
France,Provence-Alpes-Côte d'Azur,Marseille,"873,076",FR,756,1733,2408,87,PAC,43.2961743,5.3699525,1.3333333333333333,1.1900000000000002,16.6375,24.49927536231884,14.837681159420292,9.748339483394835,17.347619047619045,17.9,1.9,Overcast,36.0,810.3333333333334,9.628754827798279
France,Grand Est,Metz,"120,874",FR,743,1526,2922,81,GES,49.1196964,6.1763552,17.333333333333332,13.276666666666666,11.769525547445257,19.755797101449275,10.799637681159421,4.274538745387455,12.116117216117216,15.9,-3.4,Overcast,9.333333333333334,1746.0,9.039820633456335
France,Occitania,Montpellier,"302,454",FR,807,1593,2692,85,OCC,43.6112422,3.8767337,2.0,0.9333333333333332,15.747171532846716,24.611231884057975,14.166304347826088,7.874538745387454,16.198901098901096,20.8,0.3,Overcast,23.666666666666668,1041.6666666666667,9.597074661746616
France,Île-de-France,Montreuil,"111,455",FR,1152,1957,2975,79,IDF,50.4638918,1.7631125,10.666666666666666,18.666666666666668,11.488777372262774,17.51268115942029,10.384057971014492,5.39040590405904,12.569230769230767,16.6,-1.5,Overcast,7.666666666666667,2211.6666666666665,8.881990590405904
France,Grand Est,Mulhouse,"106,341",FR,624,1400,2232,83,GES,47.7467233,7.3389937,16.0,23.403333333333336,12.138686131386862,20.840942028985506,11.254710144927538,4.1225092250922515,12.191941391941393,18.9,-5.9,Overcast,9.666666666666666,1607.3333333333333,9.187930822058217
France,Grand Est,Nancy,"104,260",FR,684,1478,2473,79,GES,48.6937223,6.1834097,19.0,17.756666666666668,11.912408759124087,19.990579710144928,10.935144927536232,4.333210332103321,12.257142857142858,16.2,-3.5,Overcast,10.0,1790.0,9.08758560885609
France,Pays de la Loire,Nantes,"323,204",FR,778,1574,2454,83,PDL,47.2186371,-1.5541362,2.3333333333333335,0.8866666666666664,13.387864963503652,19.816304347826087,12.20217391304348,7.192988929889299,14.236996336996336,17.7,-0.7,Overcast,12.666666666666666,1690.3333333333333,9.247661193111929
France,Provence-Alpes-Côte d'Azur,Nice,"348,085",FR,992,1884,2400,83,PAC,43.7009358,7.2683912,1.6666666666666667,0.56,16.540602189781023,24.63840579710145,14.645652173913046,9.44760147601476,17.31062271062271,20.5,4.0,Overcast,22.666666666666668,851.0,9.590688161131613
France,Occitania,Nîmes,"148,104",FR,651,1340,2387,85,OCC,43.8374249,4.3600687,3.0,2.4266666666666667,15.97317518248175,25.047826086956526,14.355072463768115,8.071955719557195,16.278021978021975,20.0,-0.6,Overcast,24.666666666666668,981.0,9.577865231652316
France,Centre-Val de Loire,Orléans,"116,617",FR,649,1335,3342,83,CVL,47.9027336,1.9086066,5.666666666666667,5.0633333333333335,12.531386861313868,19.9768115942029,11.420652173913043,5.577490774907749,13.03003663003663,18.7,-4.2,Overcast,10.666666666666666,1604.3333333333333,9.172763099630997
France,Île-de-France,Paris,"2,133,111",FR,1497,2517,3732,97,IDF,48.8534951,2.3483915,8.333333333333334,9.1,12.829014598540144,20.22753623188406,11.794927536231885,5.856457564575646,13.316117216117217,17.0,-2.2,Overcast,10.333333333333334,1555.3333333333333,9.071768870438707
France,Occitania,Perpignan,"119,656",FR,657,1374,2124,76,OCC,42.6985304,2.8953121,1.0,0.2333333333333333,16.763321167883213,25.032971014492755,15.13659420289855,9.401476014760147,17.355311355311354,22.2,0.9,Overcast,19.666666666666668,603.0,9.678597365723657
France,Grand Est,Reims,"179,380",FR,715,1486,2194,79,GES,49.2577886,4.031926,9.666666666666666,8.353333333333333,12.09616788321168,19.350724637681157,11.156159420289855,5.06531365313653,12.691575091575093,16.3,-2.4,Overcast,9.333333333333334,1593.0,9.023685844608446
France,Brittany,Rennes,"225,081",FR,694,1469,2779,85,BRE,48.1113387,-1.6800198,6.0,4.2700000000000005,12.68102189781022,18.96014492753623,11.61231884057971,6.555719557195571,13.493772893772894,17.4,-1.5,Overcast,9.0,1666.0,9.149831139811397
France,Normandy,Rouen,"114,083",FR,623,1279,2676,85,NOR,49.4404591,1.0939658,8.666666666666666,11.246666666666668,12.208667883211678,18.683695652173913,11.216666666666667,5.808856088560886,13.018315018315018,17.5,-2.4,Overcast,6.666666666666667,1842.3333333333333,8.999278454284543
France,Île-de-France,Saint-Denis,"113,942",FR,1156,1932,3223,78,IDF,48.935773,2.3580232,8.0,8.75,12.667700729927006,19.95507246376812,11.671014492753622,5.7365313653136525,13.188278388278388,17.1,-3.8,Overcast,7.666666666666667,1612.6666666666667,9.055847734727347
France,Auvergne-Rhône-Alpes,Saint-Étienne,"172,718",FR,560,1239,2330,86,ARA,45.4401467,4.3873058,24.0,33.553333333333335,11.903740875912408,20.481884057971016,10.230434782608695,4.1996309963099625,12.570695970695972,16.7,-3.9,Overcast,13.666666666666666,1564.6666666666667,9.425282134071342
France,Grand Est,Strasbourg,"291,313",FR,800,1620,2781,83,GES,48.584614,7.7507127,18.0,14.070000000000002,12.024361313868614,20.521376811594205,11.297463768115941,4.001476014760148,12.132967032967034,17.5,-3.3,Overcast,9.666666666666666,1672.6666666666667,9.09545486879869
France,Provence-Alpes-Côte d'Azur,Toulon,"180,452",FR,734,1478,2210,82,PAC,43.1257311,5.9304919,0.3333333333333333,0.16333333333333333,16.80912408759124,25.247101449275366,14.769202898550725,9.812546125461253,17.286080586080587,21.1,2.8,Overcast,39.666666666666664,948.0,9.641312074620744
France,Occitania,Toulouse,"504,078",FR,812,1657,2886,90,OCC,43.6044638,1.4442433,6.666666666666667,2.94,14.671806569343065,22.878260869565217,13.112681159420289,7.086715867158672,15.480952380952377,19.0,-2.0,Overcast,15.666666666666666,1366.0,9.597074661746616
France,Centre-Val de Loire,Tours,"137,658",FR,558,1286,2459,67,CVL,47.3900474,0.6889268,3.6666666666666665,2.9166666666666665,13.163321167883211,20.644927536231883,11.950724637681162,6.27380073800738,13.664468864468864,19.0,-1.3,Overcast,12.666666666666666,1513.0,9.225435967609677
France,Auvergne-Rhône-Alpes,Villeurbanne,"156,928",FR,830,1638,3015,76,ARA,45.7733573,4.8868454,9.666666666666666,5.740000000000001,13.558485401459855,22.697826086956525,12.368115942028988,5.214760147601476,13.804761904761904,17.0,-1.5,Overcast,11.0,1320.0,9.390792978679785
Denmark,Capital,Copenhagen,"659,350",DK,1451,2601,4591,98,,55.6867243,12.5700724,31.333333333333332,29.75,9.738959854014599,16.985144927536233,8.493478260869566,2.5915129151291514,10.767399267399268,12.4,-7.1,Overcast,7.666666666666667,1529.3333333333333,8.13415377203772
Denmark,Central,Aarhus,"343,533",DK,1137,2088,4171,91,,56.1496278,10.2134046,32.0,39.900000000000006,9.734945255474452,16.45072463768116,8.530797101449275,3.093357933579336,10.755677655677655,11.5,-6.8,Overcast,7.333333333333333,1716.6666666666667,8.063222591225912
Denmark,North Jutland,Aalborg,"204,901",DK,898,1866,3522,86,,57.0462626,9.9215263,35.0,47.94999999999999,9.463412408759124,16.31195652173913,8.345289855072464,2.665682656826568,10.417948717948718,10.7,-7.0,Overcast,5.0,1809.0,7.902250225502255
Denmark,Southern,Odense,"199,682",DK,851,1805,3673,91,,55.3997225,10.3852104,28.333333333333332,28.700000000000003,9.90155109489051,16.684057971014493,8.614855072463767,3.249446494464945,10.948717948717949,12.2,-6.3,Overcast,6.666666666666667,1594.0,8.18033991389914
Denmark,Southern,Esbjerg,"105,229",DK,786,1657,5204,89,,55.4664892,8.4520751,27.666666666666668,34.51,9.900456204379562,16.215942028985506,8.5518115942029,3.699630996309963,11.034432234432236,10.4,-7.4,Overcast,4.666666666666667,2146.6666666666665,8.168873021730217
Denmark,Capital,Frederiksberg,"104,899",DK,1622,2617,5094,82,,55.678016,12.5326186,31.333333333333332,29.75,9.726094890510948,16.971376811594205,8.480434782608697,2.5797047970479707,10.754578754578755,12.4,-7.1,Overcast,7.666666666666667,1529.3333333333333,8.13415377203772
Finland,Uusimaa,Helsinki,"674,963",FI,972,1947,3432,96,,60.1698897,24.9384719,88.33333333333333,138.25000000000003,6.897080291970803,15.998913043478261,3.896014492753623,-1.5132841328413282,9.07802197802198,6.6,-9.0,Overcast,6.666666666666667,1724.6666666666667,7.2637788437884385
Finland,Uusimaa,Espoo,"314,152",FI,943,1937,3781,96,,60.2049651,24.6559808,84.0,163.91666666666666,6.959397810218978,17.116666666666667,5.228985507246377,-2.7099630996309965,8.038461538461538,7.0,-11.1,Overcast,7.333333333333333,1786.0,7.247276588765889
Finland,Pirkanmaa,Tampere,"255,066",FI,673,1422,3443,73,,61.4977929,23.7616372,90.0,144.36333333333332,6.225638686131386,16.867753623188406,4.640942028985507,-3.7682656826568266,6.989377289377289,6.7,-13.3,Overcast,5.0,1729.3333333333333,6.930422314473145
Finland,Uusimaa,Vantaa,"247,447",FI,974,1881,2469,79,,60.292997,25.0435254,86.33333333333333,164.22,6.74662408759124,17.057608695652174,5.13768115942029,-3.138007380073801,7.76117216117216,6.9,-11.2,Overcast,8.0,1777.6666666666667,7.230667240672407
Finland,North Ostrobothnia,Oulu,"214,651",FI,723,1660,2722,83,,65.0117869,25.4701983,98.66666666666667,130.3166666666667,4.175729927007299,16.039492753623186,1.5282608695652173,-6.135055350553504,5.093406593406593,6.2,-16.5,Overcast,6.0,1608.0,5.758381109061091
Finland,Southwest Finland,Turku,"201,889",FI,706,1545,3069,87,,60.4515944,22.2669983,72.0,109.80666666666667,6.958120437956205,16.935144927536232,5.355434782608696,-2.4638376383763836,7.844688644688644,7.2,-11.5,Overcast,7.333333333333333,1674.3333333333333,7.197119557195572
Finland,Central Finland,Jyväskylä,"147,821",FI,681,1500,3236,85,,62.241672,25.7495806,99.0,160.88333333333335,5.44625912408759,16.771014492753626,3.7590579710144927,-5.030258302583026,6.102564102564102,6.7,-14.9,Overcast,4.333333333333333,1765.6666666666667,6.715487228372283
Finland,Northern Savonia,Kuopio,"124,011",FI,732,1524,2679,67,,62.8924641,27.6783597,103.0,158.83,5.235401459854014,17.065579710144927,3.152173913043478,-5.576752767527676,6.114285714285714,5.5,-16.4,Overcast,5.333333333333333,1827.0,6.525042045920459
Finland,Päijänne Tavastia,Lahti,"120,693",FI,781,1618,2667,84,,60.9826257,25.66137,90.66666666666667,146.90666666666667,5.994799270072994,16.817028985507246,4.685869565217391,-4.373431734317342,6.6692307692307695,6.4,-13.4,Overcast,4.0,1719.3333333333333,7.058347181221811
Croatia,Grad Zagreb,Zagreb,"768,624",HR,754,1437,1950,80,,45.8130967,15.9772795,18.666666666666668,29.28333333333333,13.177281021897809,23.02753623188406,12.359420289855072,3.957933579335793,13.197435897435897,17.3,-2.4,Overcast,13.0,1266.3333333333333,9.390792978679785
Croatia,Split-Dalmatia,Split,"159,008",HR,909,1623,1570,71,,43.5116383,16.4399659,3.0,3.5700000000000003,16.669160583941608,25.60144927536232,14.693840579710145,9.017712177121773,17.231135531135532,20.3,1.2,Overcast,37.0,1298.6666666666667,9.609796935219352
Croatia,Primorje-Gorski Kotar,Rijeka,"106,579",HR,683,1316,1500,73,,45.3267976,14.442208,21.666666666666668,72.96333333333334,15.049270072992702,24.272826086956524,13.517753623188405,7.068265682656827,15.195238095238093,18.9,-1.9,Overcast,13.0,2239.6666666666665,9.438940908159081
Estonia,Harju,Tallinn,"437,817",EE,807,1601,1941,87,,59.4372419,24.7572802,82.33333333333333,136.59333333333333,7.477372262773724,17.03985507246377,6.131521739130434,-1.8830258302583025,8.462271062271062,7.2,-14.0,Overcast,7.333333333333333,1864.3333333333333,7.423190826158261
Germany,North Rhine-Westphalia,Aachen,"245,900",DE,872,1668,3384,90,NW,50.776351,6.083862,24.666666666666668,36.42333333333333,11.439781021897808,18.59963768115942,10.509420289855072,4.333579335793358,12.195970695970695,16.5,-2.3,Overcast,9.0,2065.6666666666665,8.838680606806069
Germany,Bavaria,Augsburg,"286,400",DE,1093,1954,3718,90,BY,48.3690341,10.8979522,30.333333333333332,39.99333333333333,10.499726277372263,19.16231884057971,9.785507246376813,2.4132841328413286,10.491208791208793,16.9,-3.9,Overcast,11.666666666666666,1745.0,9.11890962484625
Germany,North Rhine-Westphalia,Bergisch Gladbach,"111,400",DE,963,1726,3483,81,NW,50.9929303,7.1277379,25.666666666666668,30.076666666666657,11.580930656934306,18.995652173913044,10.822101449275362,4.260147601476015,12.119047619047619,16.2,-2.4,Overcast,10.333333333333334,2170.3333333333335,8.812316471914718
Germany,Berlin,Berlin,"3,520,000",DE,1217,2222,3412,96,BB,52.5173885,13.3951309,29.0,28.163333333333327,11.221350364963504,19.73731884057971,10.555072463768115,3.0,11.446520146520147,16.5,-7.9,Overcast,10.666666666666666,1422.3333333333333,8.609687833128332
Germany,North Rhine-Westphalia,Bielefeld,"333,000",DE,801,1611,3396,90,NW,52.0191005,8.531007,29.0,39.24666666666667,11.052919708029197,18.41557971014493,10.302898550724638,3.801476014760147,11.565934065934066,16.6,-5.7,Overcast,8.333333333333334,2081.0,8.685342271422714
Germany,North Rhine-Westphalia,Bochum,"364,700",DE,717,1560,2740,79,NW,51.4818111,7.2196635,24.0,23.613333333333333,11.552828467153285,18.889492753623188,10.692028985507246,4.397047970479704,12.10915750915751,16.3,-4.1,Overcast,9.333333333333334,2033.0,8.749660362853628
Germany,North Rhine-Westphalia,Bonn,"318,800",DE,1110,1957,4013,95,NW,50.7352621,7.1024635,24.333333333333332,25.153333333333336,12.125638686131387,19.64094202898551,11.14963768115942,4.865313653136531,12.72161172161172,17.0,-2.1,Overcast,11.0,1858.0,8.847404212792128
Germany,North Rhine-Westphalia,Bottrop,"117,100",DE,692,1474,2757,78,NW,51.521581,6.929204,20.666666666666668,21.09333333333333,11.755291970802919,19.047463768115943,10.947463768115941,4.61070110701107,12.291941391941391,16.3,-4.1,Overcast,9.333333333333334,1993.3333333333333,8.749660362853628
Germany,Lower Saxony,Braunschweig,"251,400",DE,701,1534,4290,78,NI,52.2646577,10.5236066,28.666666666666668,31.826666666666668,11.182572992700731,18.90326086956522,10.356884057971014,3.683394833948339,11.656043956043957,17.0,-5.6,Overcast,9.333333333333334,1683.3333333333333,8.647809747847479
Germany,Bremen,Bremen,"557,500",DE,899,1785,3265,91,HB,53.0758196,8.8071646,24.666666666666668,23.986666666666665,10.851003649635038,17.902173913043477,10.005434782608695,3.933579335793358,11.443956043956044,16.0,-5.0,Overcast,7.0,1807.0,8.531607718327182
Germany,Bremen,Bremerhaven,"114,000",DE,1084,1796,3106,73,HB,53.5505392,8.5851945,27.333333333333332,33.78666666666666,10.77007299270073,17.50144927536232,9.842753623188406,4.084501845018449,11.538827838827839,15.2,-4.1,Overcast,9.666666666666666,2087.3333333333335,8.471364380893808
Germany,Saxony,Chemnitz,"248,600",DE,609,1385,2767,88,SN,50.8323531,12.918914,44.666666666666664,68.32,10.69881386861314,19.016304347826086,9.768478260869564,2.853874538745387,11.017948717948718,17.6,-7.4,Overcast,11.0,1890.6666666666667,8.829924005740057
Germany,North Rhine-Westphalia,Cologne,"1,060,600",DE,1091,1968,3266,96,NW,50.938361,6.959974,20.333333333333332,23.286666666666665,12.008394160583942,19.464130434782607,11.160144927536232,4.721771217712178,12.561538461538461,17.2,-2.0,Overcast,10.666666666666666,1857.6666666666667,8.821135916359163
Germany,Hesse,Darmstadt,"155,400",DE,1019,1793,3568,93,HE,49.872775,8.651177,21.333333333333332,17.943333333333335,11.819708029197082,20.22826086956522,11.119565217391305,3.819557195571956,11.968131868131868,16.1,-3.0,Overcast,11.0,1621.3333333333333,8.949709358343584
Germany,North Rhine-Westphalia,Dortmund,"586,200",DE,762,1632,3427,93,NW,51.5142273,7.4652789,25.333333333333332,32.82999999999999,11.561040145985402,18.870289855072464,10.631521739130436,4.430996309963099,12.18901098901099,16.7,-3.5,Overcast,10.666666666666666,2102.6666666666665,8.749660362853628
Germany,Saxony,Dresden,"543,800",DE,755,1555,3206,89,SN,51.0493286,13.7381437,31.0,37.87,11.431569343065693,20.036231884057973,10.534782608695652,3.4317343173431736,11.58021978021978,17.6,-7.8,Overcast,11.0,1579.0,8.803464370643706
Germany,North Rhine-Westphalia,Duisburg,"491,200",DE,561,1340,2577,80,NW,51.434999,6.759562,22.666666666666668,25.946666666666662,11.977007299270074,19.26159420289855,11.184782608695652,4.805535055350553,12.532234432234432,16.5,-2.3,Overcast,8.666666666666666,2032.6666666666667,8.75871193111931
Germany,North Rhine-Westphalia,Düsseldorf,"612,200",DE,1090,1979,3937,96,NW,51.2254018,6.7763137,21.0,22.959999999999997,11.928193430656934,19.31195652173913,11.165942028985508,4.659040590405904,12.44981684981685,16.3,-1.9,Overcast,9.333333333333334,2024.3333333333333,8.78566265887659
Germany,Thuringia,Erfurt,"210,100",DE,714,1527,3419,75,TH,50.9777974,11.0287364,31.666666666666668,41.13666666666666,11.109580291970802,19.394202898550724,10.047101449275363,3.306642066420664,11.553846153846154,16.9,-6.6,Overcast,8.0,1531.0,8.812316471914718
Germany,Bavaria,Erlangen,"108,300",DE,910,1688,4577,92,BY,49.5891571,10.9812072,30.0,29.423333333333332,11.024270072992703,19.836231884057973,10.376086956521739,2.7601476014760147,10.974358974358974,17.2,-4.4,Overcast,10.0,1751.6666666666667,8.982868788437884
Germany,North Rhine-Westphalia,Essen,"582,600",DE,666,1516,3571,96,NW,51.4582235,7.0158171,22.333333333333332,29.143333333333327,11.798266423357665,19.096014492753625,10.982608695652173,4.6129151291512915,12.37765567765568,16.5,-3.2,Overcast,9.0,2094.6666666666665,8.75871193111931
Germany,Hesse,Frankfurt,"732,700",DE,1245,2182,4614,95,HE,50.1106444,8.6820917,16.666666666666668,16.753333333333334,11.88941605839416,20.458333333333332,11.166666666666666,3.822140221402214,11.965201465201465,16.0,-4.0,Overcast,10.0,1526.3333333333333,8.92453680811808
Germany,Baden-Württemberg,Freiburg im Breisgau,"226,400",DE,927,1738,3682,88,BW,47.9960901,7.8494005,21.0,32.223333333333336,12.046259124087593,20.27753623188406,10.998550724637683,4.529520295202952,12.245421245421245,18.7,-4.5,Overcast,10.0,1842.3333333333333,9.165143696186963
Germany,Bavaria,Fürth,"124,200",DE,896,1679,3746,77,BY,49.4885711,10.9587203,26.333333333333332,24.00999999999999,11.118339416058395,19.996739130434783,10.452173913043477,2.8180811808118085,11.055311355311357,17.4,-4.2,Overcast,9.333333333333334,1564.3333333333333,8.999278454284543
Germany,North Rhine-Westphalia,Gelsenkirchen,"260,400",DE,726,1506,2335,91,NW,51.5110321,7.0960124,24.0,23.613333333333333,11.820529197080292,19.15833333333333,10.959057971014492,4.666420664206642,12.374725274725275,16.6,-3.8,Overcast,9.333333333333334,2033.0,8.749660362853628
Germany,Lower Saxony,Göttingen,"119,000",DE,800,1578,2816,73,NI,51.5328328,9.9351811,32.333333333333336,42.35,10.87919708029197,18.644202898550724,9.906521739130435,3.4243542435424352,11.412454212454213,17.1,-6.7,Overcast,8.666666666666666,1748.6666666666667,8.740576558015581
Germany,North Rhine-Westphalia,Hagen,"189,000",DE,763,1567,3102,78,NW,51.3582945,7.473296,30.666666666666668,37.169999999999995,11.551916058394163,18.832608695652173,10.657608695652174,4.381918819188192,12.212820512820512,16.2,-2.3,Overcast,9.0,2220.3333333333335,8.767729089790897
Germany,Saxony-Anhalt,Halle,"237,000",DE,596,1388,3303,92,ST,51.4824354,11.9712985,26.333333333333332,33.949999999999996,11.383759124087591,19.798188405797102,10.465942028985507,3.4391143911439115,11.69120879120879,17.5,-6.2,Overcast,11.666666666666666,1370.0,8.749660362853628
Germany,Hamburg,Hamburg,"1,747,400",DE,1127,2172,3668,95,HH,53.550341,10.000654,30.0,35.79333333333334,10.700547445255474,17.931521739130435,10.021376811594202,3.521771217712177,11.202930402930402,15.6,-4.8,Overcast,7.0,1798.0,8.471364380893808
Germany,North Rhine-Westphalia,Hamm,"179,400",DE,754,1515,2146,73,NW,50.0165178,6.4184628,25.666666666666668,34.95333333333334,10.919251824817518,18.493115942028986,10.066666666666666,3.5830258302583027,11.406593406593407,15.2,-4.1,Overcast,8.333333333333334,2030.6666666666667,8.932956611316111
Germany,Lower Saxony,Hanover,"532,200",DE,891,1828,2914,93,NI,52.3744779,9.7385532,27.666666666666668,32.45666666666666,11.216605839416058,18.75036231884058,10.4018115942029,3.8756457564575646,11.710989010989012,17.2,-4.7,Overcast,9.666666666666666,1714.0,8.628822806478066
Germany,Baden-Württemberg,Heidelberg,"156,300",DE,1121,1991,3986,91,BW,49.4093582,8.694724,19.666666666666668,18.713333333333335,12.142609489051095,20.59927536231884,11.426449275362318,4.128782287822879,12.272161172161173,16.7,-3.0,Overcast,10.666666666666666,1852.0,9.007441297662977
Germany,Baden-Württemberg,Heilbronn,"122,600",DE,1124,1909,2780,74,BW,49.142291,9.218655,20.666666666666668,16.333333333333332,12.002007299270074,20.539492753623186,11.106521739130438,4.0472324723247235,12.172527472527472,18.8,-2.8,Overcast,13.333333333333334,1720.3333333333333,9.031766041410412
Germany,North Rhine-Westphalia,Herne,"155,900",DE,844,1631,2191,89,NW,51.5380394,7.219985,23.333333333333332,24.009999999999994,11.646076642335768,18.958695652173915,10.825724637681159,4.499630996309962,12.176556776556778,16.5,-4.8,Overcast,8.333333333333334,2022.0,8.740576558015581
Germany,Lower Saxony,Hildesheim,"101,700",DE,841,1619,2101,74,NI,52.1527188,9.9518083,27.666666666666668,34.85999999999999,11.186040145985402,18.860507246376812,10.281884057971014,3.746863468634687,11.726007326007327,17.1,-6.1,Overcast,8.333333333333334,1680.6666666666667,8.666647816728167
Germany,Bavaria,Ingolstadt,"132,400",DE,907,1659,3399,75,BY,48.7630165,11.4250395,27.0,26.319999999999997,10.6757299270073,19.60289855072464,10.05072463768116,2.292988929889299,10.603663003663005,16.6,-2.9,Overcast,9.666666666666666,1591.3333333333333,9.079690170151702
Germany,Thuringia,Jena,"109,500",DE,657,1320,3670,76,TH,50.9281717,11.5879359,33.0,36.14333333333334,11.443795620437955,19.796014492753624,10.382246376811594,3.5948339483394838,11.864468864468865,17.3,-6.3,Overcast,8.666666666666666,1501.3333333333333,8.821135916359163
Germany,Baden-Württemberg,Karlsruhe,"307,800",DE,981,1891,3046,89,BW,49.0068705,8.4034195,18.333333333333332,11.970000000000004,12.385127737226277,20.9981884057971,11.484420289855072,4.367158671586716,12.547252747252745,18.3,-2.2,Overcast,10.0,1756.3333333333333,9.047847550225503
Germany,Hesse,Kassel,"198,000",DE,715,1509,2761,86,HE,51.3157833,9.4978479,32.333333333333336,39.85333333333333,10.799726277372264,18.70108695652174,9.822101449275362,3.2833948339483396,11.261172161172162,16.6,-6.8,Overcast,8.0,1747.0,8.77671210537105
Germany,Schleswig-Holstein,Kiel,"246,300",DE,866,1678,2775,86,SH,54.3227085,10.135555,32.333333333333336,35.233333333333334,10.335310218978103,17.28804347826087,9.264855072463767,3.5501845018450187,11.123809523809525,14.7,-9.7,Overcast,8.666666666666666,1801.6666666666667,8.356918050430505
Germany,Rhineland-Palatinate,Koblenz,"112,600",DE,822,1583,3498,76,RP,50.3533278,7.5943951,20.333333333333332,22.026666666666667,11.957755474452556,19.86521739130435,10.906884057971014,4.47380073800738,12.454945054945055,16.5,-2.5,Overcast,7.333333333333333,1621.3333333333333,8.890559840098401
Germany,North Rhine-Westphalia,Krefeld,"225,100",DE,796,1626,2717,78,NW,51.3331205,6.5623343,20.0,18.503333333333334,11.694890510948905,18.88333333333333,10.895652173913044,4.637638376383763,12.241025641025642,16.6,-3.3,Overcast,7.666666666666667,1800.3333333333333,8.767729089790897
Germany,Saxony,Leipzig,"560,500",DE,856,1690,3010,92,SN,51.3406321,12.3747329,30.666666666666668,35.88666666666667,11.394616788321168,19.834420289855075,10.472826086956522,3.4003690036900367,11.729670329670329,17.3,-5.5,Overcast,12.0,1463.3333333333333,8.767729089790897
Germany,North Rhine-Westphalia,Leverkusen,"163,500",DE,1240,2037,4167,82,NW,51.0324743,6.9881194,19.333333333333332,20.813333333333336,11.931204379562043,19.343115942028984,11.110507246376812,4.660147601476015,12.485347985347985,16.6,-2.0,Overcast,10.0,1922.0,8.812316471914718
Germany,Schleswig-Holstein,Lübeck,"216,300",DE,934,1743,3206,75,SH,53.866444,10.684738,31.0,31.009999999999994,10.295894160583943,17.457246376811597,9.344202898550725,3.3129151291512917,10.949816849816848,15.5,-9.9,Overcast,7.0,1689.3333333333333,8.42000398728987
Germany,Rhineland-Palatinate,Ludwigshafen,"164,700",DE,1107,1890,3675,76,RP,49.4704113,8.4381568,16.333333333333332,13.113333333333332,12.238868613138685,20.84891304347826,11.507246376811594,4.1225092250922515,12.330769230769231,17.1,-2.9,Overcast,10.0,1479.3333333333333,8.999278454284543
Germany,Saxony-Anhalt,Magdeburg,"235,700",DE,606,1411,2929,73,ST,52.1314783,11.6400789,24.666666666666668,25.036666666666665,11.373175182481752,19.62826086956522,10.627898550724638,3.4302583025830256,11.665567765567765,17.5,-6.2,Overcast,8.333333333333334,1342.6666666666667,8.666647816728167
Germany,Rhineland-Palatinate,Mainz,"209,800",DE,907,1736,3334,79,RP,49.9995205,8.2736253,18.666666666666668,17.966666666666665,11.999726277372263,20.528985507246375,11.23731884057971,3.9583025830258296,12.13003663003663,16.0,-2.8,Overcast,11.666666666666666,1477.3333333333333,8.932956611316111
Germany,Baden-Württemberg,Mannheim,"305,800",DE,1002,1825,4964,94,BW,49.4892913,8.4673098,19.0,15.656666666666666,12.221806569343068,20.715579710144926,11.535507246376813,4.146863468634687,12.344322344322345,16.8,-2.8,Overcast,9.333333333333334,1660.0,8.999278454284543
Germany,North Rhine-Westphalia,Moers,"104,500",DE,741,1525,2913,78,NW,51.451283,6.62843,20.666666666666668,23.77666666666666,11.847171532846716,19.080797101449274,11.059782608695652,4.736900369003689,12.388278388278389,16.3,-2.5,Overcast,8.0,1906.0,8.75871193111931
Germany,North Rhine-Westphalia,Mönchengladbach,"260,000",DE,843,1651,3057,79,NW,51.1947131,6.4353792,18.333333333333332,18.596666666666668,11.576094890510948,18.821376811594206,10.72427536231884,4.470110701107012,12.166300366300366,16.9,-3.8,Overcast,9.0,1784.0,8.78566265887659
Germany,North Rhine-Westphalia,Mülheim,"169,300",DE,760,1543,2836,79,NW,51.4272925,6.8829192,22.666666666666668,25.946666666666662,11.85182481751825,19.13514492753623,11.057608695652174,4.682287822878228,12.408424908424909,16.3,-2.4,Overcast,8.666666666666666,2032.6666666666667,8.75871193111931
Germany,Bavaria,Munich,"1,450,400",DE,1467,2463,3954,94,BY,48.1371079,11.5753822,37.333333333333336,55.95333333333334,10.547262773722627,19.280797101449274,9.791666666666666,2.388560885608856,10.58058608058608,16.6,-5.1,Overcast,13.0,1894.3333333333333,9.149831139811397
Germany,North Rhine-Westphalia,Münster,"310,000",DE,1064,1887,3381,89,NW,51.9625101,7.6251879,25.0,23.659999999999997,11.264872262773721,18.494927536231884,10.452536231884057,4.208118081180812,11.781684981684984,16.6,-5.8,Overcast,7.333333333333333,1835.0,8.685342271422714
Germany,North Rhine-Westphalia,Neuss,"155,400",DE,879,1650,2654,92,NW,51.1981778,6.6916476,19.333333333333332,17.803333333333338,11.836496350364962,19.158695652173915,11.014492753623188,4.658302583025829,12.39047619047619,16.9,-3.0,Overcast,8.333333333333334,1821.6666666666667,8.78566265887659
Germany,Bavaria,Nuremberg,"510,000",DE,898,1767,3627,92,BY,49.453872,11.077298,30.333333333333332,30.753333333333334,11.121076642335767,19.95108695652174,10.539855072463768,2.7701107011070114,11.071428571428571,17.4,-4.4,Overcast,10.333333333333334,1703.3333333333333,8.999278454284543
Germany,North Rhine-Westphalia,Oberhausen,"211,000",DE,797,1605,2531,78,NW,51.4696137,6.8514435,20.666666666666668,21.09333333333333,11.84580291970803,19.138768115942028,11.035869565217391,4.702952029520295,12.382051282051282,16.4,-4.0,Overcast,9.333333333333334,1993.3333333333333,8.749660362853628
Germany,Hesse,Offenbach am Main,"211,000",DE,924,1730,2885,77,HE,50.1055002,8.7610698,20.0,17.29,11.916970802919709,20.44710144927536,11.120652173913044,3.9107011070110698,12.045787545787546,16.1,-3.3,Overcast,9.0,1546.3333333333333,8.92453680811808
Germany,Lower Saxony,Oldenburg,"163,800",DE,949,1727,3179,88,NI,53.1389753,8.2146017,23.666666666666668,25.176666666666662,10.910492700729929,17.737681159420287,10.052536231884059,4.172693726937269,11.564102564102564,16.3,-3.9,Overcast,6.666666666666667,1869.0,8.531607718327182
Germany,Lower Saxony,Osnabrück,"162,400",DE,702,1432,2605,74,NI,52.2719595,8.047635,26.666666666666668,30.63666666666667,11.19735401459854,18.429347826086957,10.398913043478263,4.104059040590406,11.734432234432234,16.4,-5.1,Overcast,7.0,1976.6666666666667,8.647809747847479
Germany,North Rhine-Westphalia,Paderborn,"148,100",DE,810,1589,2694,73,NW,51.7177044,8.752653,32.333333333333336,50.02666666666667,11.33448905109489,18.68840579710145,10.442391304347826,4.139483394833949,11.943956043956044,16.7,-5.3,Overcast,10.666666666666666,2309.0,8.722305022550225
Germany,Baden-Württemberg,Pforzheim,"122,200",DE,791,1565,3118,77,BW,48.890934,8.7025509,23.666666666666668,22.91333333333333,11.9,20.285507246376813,10.819565217391306,4.1258302583025825,12.231868131868133,18.6,-2.3,Overcast,11.666666666666666,1688.0,9.063821637966381
Germany,Brandenburg,Potsdam,"167,700",DE,1071,1902,3440,79,BB,52.4009309,13.0591397,29.666666666666668,31.476666666666663,11.296532846715328,19.532971014492755,10.621014492753622,3.2619926199261995,11.628205128205128,16.9,-7.0,Overcast,9.333333333333334,1427.0,8.628822806478066
Germany,North Rhine-Westphalia,Recklinghausen,"114,300",DE,710,1535,2901,76,NW,51.6143815,7.1978546,24.0,24.429999999999996,11.450364963503649,18.74927536231884,10.645289855072464,4.308856088560885,11.974358974358974,16.5,-5.3,Overcast,8.333333333333334,1966.3333333333333,8.731457216072162
Germany,Bavaria,Regensburg,"145,500",DE,902,1720,3448,88,BY,49.0195333,12.0974869,28.666666666666668,33.973333333333336,10.647171532846716,19.677173913043475,10.081884057971013,2.1306273062730625,10.543589743589742,16.3,-3.8,Overcast,8.0,1532.3333333333333,9.047847550225503
Germany,North Rhine-Westphalia,Remscheid,"109,500",DE,831,1608,2878,79,NW,51.1798706,7.1943544,37.666666666666664,59.10333333333333,9.933211678832116,17.217753623188408,9.181521739130435,2.699261992619926,10.50952380952381,14.1,-6.4,Overcast,9.333333333333334,2491.0,8.78566265887659
Germany,Baden-Württemberg,Reutlingen,"114,310",DE,1008,1876,3479,91,BW,48.4919508,9.2114144,28.666666666666668,29.843333333333334,11.246076642335767,19.656521739130433,10.097826086956522,3.5789667896678967,11.515018315018315,17.6,-4.7,Overcast,11.666666666666666,1741.0,9.111116564165643
Germany,Mecklenburg-Vorpommern,Rostock,"206,000",DE,685,1481,2603,84,MV,54.0886707,12.1400211,29.333333333333332,30.893333333333334,10.352463503649634,17.676811594202896,9.297101449275363,3.2154981549815496,11.0992673992674,15.6,-7.1,Overcast,8.666666666666666,1688.6666666666667,8.388663038130382
Germany,Saarland,Saarbrücken,"178,200",DE,701,1479,3157,87,SL,49.234362,6.996379,20.666666666666668,23.473333333333333,11.838047445255475,19.947101449275365,11.059057971014493,4.143173431734318,12.065934065934066,15.9,-4.4,Overcast,10.333333333333334,1922.0,9.023685844608446
Germany,Lower Saxony,Salzgitter,"101,100",DE,750,1511,1759,71,NI,52.1503721,10.3593147,29.0,33.086666666666666,11.029653284671532,18.734782608695653,10.119202898550723,3.581180811808118,11.554212454212454,16.9,-5.1,Overcast,9.333333333333334,1609.3333333333333,8.666647816728167
Germany,North Rhine-Westphalia,Siegen,"102,400",DE,758,1450,2727,74,NW,50.8751175,8.0256131,33.666666666666664,54.73999999999998,10.5353102189781,18.008695652173913,9.792028985507246,3.1690036900369,11.043589743589743,15.4,-4.3,Overcast,9.666666666666666,2380.0,8.829924005740057
Germany,North Rhine-Westphalia,Solingen,"158,700",DE,872,1691,4494,84,NW,51.1721629,7.0845893,30.333333333333332,44.63666666666666,10.749452554744526,18.070289855072463,10.060869565217391,3.440959409594096,11.299267399267398,15.0,-5.0,Overcast,10.666666666666666,2452.3333333333335,8.794580043050432
Germany,Baden-Württemberg,Stuttgart,"623,700",DE,1276,2207,3556,93,BW,48.7784485,9.1800132,24.0,23.47333333333333,11.72874087591241,20.221376811594205,10.82536231884058,3.8461254612546134,11.880952380952381,18.4,-2.8,Overcast,11.0,1700.3333333333333,9.079690170151702
Germany,Rhineland-Palatinate,Trier,"114,900",DE,862,1725,2897,86,RP,49.7596208,6.6441878,22.333333333333332,24.709999999999997,11.748813868613139,19.57210144927536,10.778260869565218,4.344280442804429,12.17106227106227,16.6,-3.7,Overcast,11.0,1902.6666666666667,8.966345756457565
Germany,Baden-Württemberg,Ulm,"122,636",DE,1027,1845,3839,88,BW,48.3984968,9.9912458,33.0,36.586666666666666,10.273266423357665,18.900000000000002,9.480072463768115,2.2335793357933578,10.334432234432235,15.3,-5.3,Overcast,12.333333333333334,1665.0,9.11890962484625
Germany,Hesse,Wiesbaden,"276,200",DE,1039,1922,3900,94,HE,50.0820384,8.2416556,21.0,24.546666666666656,11.728740875912408,20.07246376811594,11.035869565217391,3.7856088560885612,11.878754578754577,15.5,-4.8,Overcast,11.333333333333334,1587.3333333333333,8.92453680811808
Germany,Lower Saxony,Wolfsburg,"124,000",DE,653,1413,4398,77,NI,52.4205588,10.7861682,28.333333333333332,31.94333333333333,11.084762773722627,18.818115942028985,10.219202898550725,3.5793357933579335,11.591941391941393,16.9,-6.4,Overcast,8.0,1617.6666666666667,8.628822806478066
Germany,North Rhine-Westphalia,Wuppertal,"350,000",DE,653,1488,3021,81,NW,51.264018,7.1780374,33.333333333333336,46.06,11.2742700729927,18.56992753623188,10.514855072463767,4.017343173431733,11.86996336996337,15.7,-2.6,Overcast,9.333333333333334,2397.3333333333335,8.77671210537105
Germany,Bavaria,Würzburg,"124,900",DE,688,1307,3422,74,BY,49.7780356,9.9434769,23.666666666666668,22.936666666666667,11.364963503649635,19.951449275362318,10.498550724637681,3.338007380073801,11.52820512820513,17.0,-3.8,Overcast,9.333333333333334,1562.3333333333333,8.958042189421896
Italy,Apulia,Bari,"316,736",IT,799,1588,1851,81,AP,41.1257843,16.8620293,2.3333333333333335,0.7466666666666667,18.42399635036496,26.939855072463768,15.961231884057971,11.190774907749077,19.484615384615385,21.9,2.7,Overcast,47.333333333333336,876.6666666666666,9.810623677736777
Italy,Lombardy,Bergamo,"119,809",IT,773,1547,2227,85,LO,45.7566557,9.7542192,14.333333333333334,14.816666666666665,11.79397810218978,20.85,10.627898550724638,3.5656826568265685,11.985347985347985,17.1,-6.4,Overcast,11.666666666666666,1890.3333333333333,9.39773086305863
Italy,Emilia-Romagna,Bologna,"389,200",IT,895,1727,2097,85,ER,44.4938203,11.3426327,5.0,13.883333333333335,15.257846715328466,25.363768115942026,13.890217391304347,5.925830258302583,15.687179487179488,20.3,0.2,Overcast,18.333333333333332,1160.0,9.519303802788027
Italy,Trentino-Alto Adige/Südtirol,Bolzano,"106,410",IT,841,1518,2006,62,TT,46.6559455,11.2302129,84.0,230.51,5.702919708029197,14.484420289855072,4.628623188405797,-2.5852398523985243,6.138461538461539,11.5,-12.7,Overcast,12.666666666666666,2481.3333333333335,9.30594130791308
Italy,Lombardy,Brescia,"197,236",IT,883,1762,1983,82,LO,45.7795805,10.425873,37.333333333333336,80.59333333333332,8.496259124087588,17.166304347826085,7.0931159420289855,0.703321033210332,8.885347985347984,15.1,-9.0,Overcast,13.0,2023.6666666666667,9.390792978679785
Italy,Sardinia,Cagliari,"148,296",IT,761,1586,1821,77,SA,39.2171994,9.113311,0.0,0.0,19.154653284671532,25.155072463768118,16.382608695652173,13.669741697416974,21.335531135531138,20.0,10.9,Overcast,42.333333333333336,466.6666666666667,9.968998247232472
Italy,Sicily,Catania,"299,730",IT,588,1298,1992,81,SI,37.5023612,15.0873718,0.3333333333333333,0.023333333333333334,19.2029197080292,27.23731884057971,16.36449275362319,12.239483394833947,20.862271062271063,24.2,7.2,Overcast,43.666666666666664,714.3333333333334,10.097166451414514
Italy,Emilia-Romagna,Ferrara,"129,724",IT,647,1393,1680,81,ER,44.7667642,11.827939,1.6666666666666667,4.853333333333334,15.019525547445257,25.02210144927536,13.793478260869563,5.556457564575647,15.54029304029304,18.6,-2.0,Overcast,15.666666666666666,1086.0,9.492812730627305
Italy,Tuscany,Florence,"362,742",IT,964,1785,2001,85,TU,43.7697955,11.2556404,4.333333333333333,6.0200000000000005,15.767609489051095,25.074637681159423,13.886956521739132,7.780442804428044,16.188278388278388,19.8,-2.1,Overcast,20.0,1589.0,9.584285219352193
Italy,Apulia,Foggia,"146,017",IT,631,1334,1782,77,AP,41.5028106,15.4528939,2.3333333333333335,1.19,17.717335766423357,27.389492753623188,15.132246376811594,9.735793357933579,18.475457875457877,22.5,0.1,Overcast,32.0,886.0,9.781238120131203
Italy,Emilia-Romagna,Forlì,"116,726",IT,858,1614,2124,79,ER,44.2227278,12.041273,3.6666666666666665,2.7300000000000004,15.208394160583943,24.91340579710145,13.728985507246376,6.222509225092251,15.81245421245421,18.0,-1.0,Overcast,18.666666666666668,1108.3333333333333,9.538982431324316
Italy,Liguria,Genoa,"561,191",IT,769,1620,2028,81,LI,44.40726,8.9338624,1.6666666666666667,2.66,16.562956204379564,24.123913043478264,14.521376811594202,10.055350553505535,17.442857142857143,17.2,4.0,Overcast,15.666666666666666,1970.0,9.525881324313245
Italy,Campania,Giugliano in Campania,"124,222",IT,685,1389,1685,69,CM,40.9283217,14.2011232,0.6666666666666666,1.0733333333333333,16.8279197080292,25.498188405797098,14.447826086956521,9.506642066420666,17.736263736263737,19.8,-0.6,Overcast,22.666666666666668,1469.0,9.828086920869207
Italy,Lazio,Latina,"127,719",IT,664,1345,1908,81,LZ,41.4595261,13.0125912,0.0,0.0,17.56706204379562,25.845289855072465,15.074637681159421,10.631734317343172,18.6021978021978,20.1,2.4,Overcast,31.0,1150.0,9.787143357933578
Italy,Tuscany,Livorno,"153,859",IT,736,1510,1634,84,TU,42.7902379,10.3402239,0.0,0.0,18.000638686131385,25.58913043478261,15.415579710144927,11.662730627306273,19.233699633699633,19.5,8.1,Overcast,29.0,1156.3333333333333,9.672423134481345
Italy,Sicily,Messina,"219,387",IT,532,1176,1820,78,SI,38.1937571,15.5542082,0.6666666666666666,0.46666666666666673,18.739598540145987,26.067753623188402,15.83876811594203,12.521033210332105,20.436630036630035,25.8,8.9,Overcast,27.666666666666668,1504.3333333333333,10.044554561295614
Italy,Lombardy,Milan,"1,358,420",IT,1295,2307,2386,88,LO,45.4641943,9.1896346,4.666666666666667,7.0,14.184580291970802,24.081521739130434,13.523913043478263,4.828782287822878,14.134065934065934,20.3,-0.6,Overcast,13.666666666666666,1551.3333333333333,9.425282134071342
Italy,Emilia-Romagna,Modena,"184,836",IT,853,1700,1965,83,ER,44.5384728,10.9359609,6.333333333333333,21.139999999999997,14.842244525547446,24.777173913043477,13.515217391304347,5.706273062730627,15.208791208791208,21.4,0.5,Overcast,19.333333333333332,1192.0,9.512708148831488
Italy,Lombardy,Monza,"122,369",IT,917,1764,1991,85,LO,45.6395418,9.2788304,7.0,7.863333333333333,13.885583941605839,23.555072463768116,13.057608695652176,4.833948339483395,13.932234432234432,18.9,-1.4,Overcast,10.666666666666666,1752.3333333333333,9.404648554735548
Italy,Campania,Naples,"917,510",IT,828,1605,1788,86,CM,40.8358846,14.2487679,0.6666666666666666,0.18666666666666668,17.950091240875913,24.79492753623188,15.18731884057971,12.20959409594096,19.521611721611723,18.9,7.0,Overcast,31.0,1333.0,9.839660731857318
Italy,Piedmont,Novara,"101,797",IT,578,1264,1955,85,PI,45.58425,8.545997,7.0,10.43,13.228558394160585,22.592028985507245,12.63840579710145,4.196678966789668,13.324542124542125,19.0,-5.8,Overcast,12.0,1635.6666666666667,9.411546115211154
Italy,Veneto,Padua,"207,112",IT,951,1769,2020,83,VE,45.4077172,11.8734455,3.0,7.863333333333333,14.554470802919708,24.63586956521739,13.603985507246378,5.027675276752768,14.780219780219781,16.6,-2.2,Overcast,16.666666666666668,1224.0,9.432121166461664
Italy,Sicily,Palermo,"632,499",IT,611,1301,1505,78,SI,38.1112268,13.3524434,1.6666666666666667,0.63,19.4117700729927,26.77173913043478,16.58913043478261,13.032472324723248,21.157142857142855,24.7,9.3,Overcast,47.666666666666664,1163.0,10.049865344403441
Italy,Emilia-Romagna,Parma,"197,018",IT,787,1589,1922,79,ER,44.6952006,10.0979869,8.0,20.83666666666667,14.701551094890512,24.398913043478263,13.384782608695652,5.835424354243543,15.030036630036633,20.8,-1.0,Overcast,20.0,1341.3333333333333,9.499462925379252
Italy,Umbria,Perugia,"162,367",IT,527,1215,1690,79,UM,43.1070321,12.4029962,3.6666666666666665,5.32,14.754379562043795,24.1018115942029,12.614492753623187,6.782287822878229,15.381318681318684,18.4,-3.0,Overcast,21.333333333333332,1333.3333333333333,9.641312074620744
Italy,Abruzzo,Pescara,"118,829",IT,513,1166,2031,64,AB,42.3102619,13.9575901,8.0,19.553333333333335,15.790875912408758,24.852898550724635,13.506159420289855,7.991512915129152,16.681318681318682,21.2,0.0,Overcast,22.666666666666668,1328.0,9.715319434194344
Italy,Emilia-Romagna,Piacenza,"102,728",IT,750,1582,2054,67,ER,44.8476352,9.6665313,12.666666666666666,46.129999999999995,13.591240875912408,22.83985507246377,12.10036231884058,5.291143911439114,13.987545787545788,19.3,-0.8,Overcast,17.333333333333332,1597.6666666666667,9.486144331693318
Italy,Tuscany,Prato,"196,317",IT,793,1607,2042,71,TU,43.9357181,11.0941473,4.666666666666667,5.436666666666667,14.575182481751824,23.752173913043478,12.768478260869566,6.717712177121771,14.923809523809522,17.4,-2.9,Overcast,19.0,1708.6666666666667,9.571427941779415
Italy,Emilia-Romagna,Ravenna,"156,050",IT,620,1384,1745,77,ER,44.3640607,12.0590095,3.6666666666666665,1.8433333333333335,15.170346715328465,25.103985507246378,13.795289855072463,5.897416974169741,15.722710622710624,17.9,-1.5,Overcast,19.666666666666668,1097.3333333333333,9.525881324313245
Italy,Calabria,Reggio Calabria,"171,181",IT,498,1161,1223,75,CA,38.1035389,15.6397556,0.0,0.0,19.03074817518248,26.419202898550726,16.061231884057975,12.853505535055351,20.695238095238096,24.6,8.7,Overcast,30.0,1310.6666666666667,10.049865344403441
Italy,Emilia-Romagna,Reggio Emilia,"170,451",IT,656,1446,1979,81,ER,44.6086674,10.5940667,7.333333333333333,23.89333333333333,14.009762773722628,23.981884057971016,12.743840579710145,4.833579335793358,14.316849816849818,20.9,-1.0,Overcast,20.0,1284.0,9.506094505945061
Italy,Emilia-Romagna,Rimini,"149,681",IT,777,1567,1917,76,ER,43.9465433,12.630749,2.6666666666666665,3.546666666666667,15.800182481751825,24.98731884057971,14.021739130434785,7.621771217712177,16.428571428571427,20.3,1.1,Overcast,23.333333333333332,1230.6666666666667,9.564973913489133
Italy,Lazio,Rome,"2,755,309",IT,1128,2020,2219,89,LZ,41.8933203,12.4829321,0.3333333333333333,0.21,17.267700729927007,26.455072463768115,14.91123188405797,9.556088560885609,18.016849816849817,20.5,1.4,Overcast,31.0,1135.3333333333333,9.751495869208693
Italy,Campania,Salerno,"127,485",IT,797,1518,1653,81,CM,40.4194417,15.3106085,6.333333333333333,11.643333333333336,14.808667883211678,23.121014492753623,12.278260869565218,7.885608856088561,15.835531135531136,18.2,0.2,Overcast,27.666666666666668,1746.0,9.874058917589174
Italy,Sardinia,Sassari,"121,409",IT,586,1269,1457,72,SA,40.7234746,8.5612674,2.3333333333333335,1.47,17.295711678832117,25.10797101449275,14.819927536231885,10.60590405904059,18.54139194139194,20.0,4.8,Overcast,39.666666666666664,1081.3333333333333,9.845427244772448
Italy,Sicily,Syracuse,"116,635",IT,578,1232,1579,74,SI,37.0646139,15.2907196,0.0,0.0,19.6161496350365,27.434057971014497,16.76050724637681,12.939852398523985,21.226739926739924,23.6,7.8,Overcast,56.0,785.3333333333334,10.12821689216892
Italy,Apulia,Taranto,"188,310",IT,603,1311,1580,76,AP,40.5488156,17.0805801,0.3333333333333333,0.13999999999999999,18.48832116788321,27.68188405797101,15.692753623188405,10.87970479704797,19.57289377289377,19.8,3.4,Overcast,41.333333333333336,789.6666666666666,9.862646084460843
Italy,Umbria,Terni,"106,793",IT,451,1101,1625,79,UM,42.6539486,12.4396528,5.0,4.736666666666666,14.790693430656937,24.241666666666667,12.483333333333333,6.936531365313653,15.365201465201464,17.4,-2.7,Overcast,25.0,1390.6666666666667,9.684756560065601
Italy,Trentino-Alto Adige/Südtirol,Trento,"118,277",IT,833,1612,2043,65,TT,46.1029536,11.1297425,23.333333333333332,48.04333333333333,11.046350364963503,20.467391304347824,10.058333333333334,2.4324723247232476,11.071428571428571,16.0,-9.6,Overcast,12.333333333333334,1395.0,9.362840590405904
Italy,Friuli-Venezia Giulia,Trieste,"199,032",IT,813,1600,1818,78,FG,45.6496485,13.7772781,12.333333333333334,17.803333333333335,15.12490875912409,24.105434782608697,13.736231884057972,7.001476014760148,15.513553113553114,17.2,-0.1,Overcast,17.666666666666668,1803.0,9.404648554735548
Italy,Piedmont,Turin,"847,398",IT,762,1582,1975,85,PI,45.0677551,7.6824892,7.333333333333333,11.036666666666667,13.324543795620437,23.803623188405798,12.680797101449274,3.4708487084870847,13.162637362637362,18.3,-6.9,Overcast,10.666666666666666,1336.6666666666667,9.459284532595326
Italy,Veneto,Venice,"250,913",IT,869,1704,1781,82,VE,45.4371908,12.3345898,2.6666666666666665,6.743333333333333,14.616240875912409,24.521014492753626,13.621376811594203,5.315129151291512,14.84139194139194,16.7,-1.5,Overcast,16.333333333333332,1259.6666666666667,9.425282134071342
Italy,Veneto,Verona,"256,049",IT,845,1657,2105,84,VE,45.4424977,10.9857377,3.6666666666666665,2.31,14.621624087591242,24.514130434782608,13.77753623188406,5.404059040590406,14.623809523809522,17.9,-2.3,Overcast,14.0,1247.6666666666667,9.425282134071342
Italy,Veneto,Vicenza,"110,283",IT,804,1574,1926,81,VE,45.6348591,11.4063543,8.0,10.523333333333332,12.858667883211677,21.98514492753623,11.718478260869563,4.5309963099631,13.051282051282051,16.5,-3.2,Overcast,14.333333333333334,1735.3333333333333,9.404648554735548
Greece,Attica,Athens,"643,452",GR,710,1436,1185,82,,37.9755648,23.7348324,0.6666666666666666,5.763333333333333,19.144890510948905,28.854347826086958,16.657246376811592,10.95608856088561,19.97252747252747,20.8,3.2,Overcast,59.333333333333336,630.0,10.059713048380484
Greece,Western Greece,Patras,"169,886",GR,531,1111,1057,71,,38.246242,21.7350847,2.0,4.06,19.638412408759123,28.604710144927534,16.85,12.318450184501845,20.65897435897436,22.0,7.5,Overcast,56.333333333333336,1162.6666666666667,10.038484184091837
Greece,Crete,Heraklion,"145,440",GR,613,1256,1108,74,,35.33908,25.1332843,1.6666666666666667,0.9566666666666667,19.8125,27.222101449275364,17.434782608695652,13.399999999999999,21.09084249084249,24.7,8.7,Overcast,86.66666666666667,767.0,10.253025000000001
Greece,Thessaly,Larissa,"146,377",GR,533,1149,1015,71,,39.6383092,22.4160706,2.3333333333333335,1.7966666666666669,16.832481751824815,28.018478260869568,14.988768115942024,7.141328413284133,17.00769230769231,21.8,-1.6,Overcast,48.0,732.0,9.935117281672815
Greece,Attica,Piraeus,"168,151",GR,539,1177,1106,66,,37.9431594,23.6470593,0.3333333333333333,4.06,19.507755474452555,29.33804347826087,16.926449275362323,11.327306273062732,20.2996336996337,21.5,2.9,Overcast,61.0,630.0,10.064992568675686
Greece,Thessaly,Volos,"139,670",GR,475,1101,968,56,,39.3624833,22.9401864,3.3333333333333335,2.4266666666666667,17.968339416058395,27.438043478260873,15.78840579710145,9.893357933579335,18.614285714285717,20.8,2.7,Overcast,46.333333333333336,774.6666666666666,9.957237105371055
Greece,Attica,Peristeri,"133,630",GR,574,1192,796,64,,38.0128111,23.6955137,0.6666666666666666,5.763333333333333,19.340510948905106,29.050362318840577,16.85253623188406,11.15129151291513,20.168498168498168,21.0,3.4,Overcast,59.333333333333336,630.0,10.059713048380484
Greece,Central Macedonia,Thessaloniki,"309,617",GR,569,1225,1130,78,,40.6403167,22.9352716,4.333333333333333,9.356666666666667,16.97837591240876,27.266304347826086,14.97210144927536,8.00221402214022,17.516117216117216,20.0,2.1,Overcast,41.0,817.6666666666666,9.850362228372285
Hungary,Central Hungary,Budapest,"1,671,004",HU,707,1377,1503,82,,47.4813896,19.1460941,17.0,23.543333333333333,12.563047445255473,23.172826086956526,12.083695652173914,2.6579335793357934,12.153846153846153,16.7,-4.1,Overcast,13.333333333333334,1050.6666666666667,9.217982144321441
Hungary,Northern Great Plain,Debrecen,"201,582",HU,563,1058,1067,68,,47.531399,21.6259782,21.0,22.773333333333326,12.537591240875914,22.83913043478261,12.047463768115941,2.916605166051661,12.168864468864468,18.7,-5.0,Overcast,15.666666666666666,1085.6666666666667,9.210503833538334
Hungary,Western Transdanubia,Győr,"130,020",HU,404,861,1269,57,,47.6835029,17.6342832,17.333333333333332,18.433333333333334,12.736770072992702,22.53840579710145,12.194927536231885,3.376383763837638,12.667032967032966,16.9,-3.0,Overcast,12.333333333333334,1048.3333333333333,9.195479387043871
Hungary,Southern Great Plain,Kecskemét,"109,731",HU,455,895,1062,70,,46.9073883,19.6917206,16.333333333333332,20.043333333333333,13.04543795620438,23.53586956521739,12.527536231884058,3.2583025830258303,12.67875457875458,17.4,-3.0,Overcast,16.333333333333332,992.3333333333334,9.276977849528494
Hungary,Northern Hungary,Miskolc,"145,248",HU,432,913,1109,68,,48.1030643,20.7900429,21.666666666666668,24.289999999999996,11.852554744525547,22.058333333333334,11.534420289855072,2.2608856088560882,11.377655677655678,17.2,-5.5,Overcast,13.333333333333334,1080.6666666666667,9.149831139811397
Hungary,Northern Great Plain,Nyíregyháza,"115,711",HU,328,735,1450,56,,47.9557802,21.7167982,20.666666666666668,23.35666666666667,12.208576642335768,22.442028985507246,11.794202898550724,2.6014760147601477,11.818315018315017,18.3,-5.1,Overcast,14.333333333333334,1131.3333333333333,9.165143696186963
Hungary,Southern Transdanubia,Pécs,"141,031",HU,499,1033,858,66,,46.0765092,18.2280317,19.666666666666668,29.75,13.165784671532847,23.084057971014495,12.437681159420288,3.8066420664206637,13.165201465201466,17.1,-2.9,Overcast,17.666666666666668,1088.6666666666667,9.362840590405904
Hungary,Southern Great Plain,Szeged,"158,829",HU,432,934,1261,68,,46.2546312,20.1486016,14.666666666666666,13.51,13.585492700729928,24.145652173913042,12.91123188405797,3.751291512915129,13.353113553113554,18.4,-3.4,Overcast,14.333333333333334,982.3333333333334,9.348741738417385
Ireland,Dublin,Dublin,"592,713",IE,1880,2858,4105,96,,53.3493795,-6.2605593,10.333333333333334,15.213333333333333,11.097080291970803,15.827173913043476,10.33876811594203,6.613653136531366,11.532234432234432,14.4,-1.6,Light Drizzle,5.0,1975.6666666666667,8.503008384583847
Ireland,Cork,Cork,"131,423",IE,1584,2472,3327,88,,51.8985136,-8.4726423,9.0,8.796666666666665,11.322992700729927,15.796014492753622,10.484420289855073,7.119557195571956,11.821245421245422,14.0,-0.4,Light Drizzle,3.0,2296.0,8.695897642476426
Iceland,Capital,Reykjavík,"136,894",IS,2025,3268,4361,91,,64.145981,-21.9422367,98.66666666666667,255.82666666666668,4.654014598540146,10.815942028985507,4.2539855072463775,-1.4538745387453875,4.891941391941392,9.2,-11.3,Overcast,4.666666666666667,2860.3333333333335,6.099119751947518
Netherlands,Flevoland,Almere,"226,438",NL,1339,2230,3374,92,,52.4417513,5.2092943,18.666666666666668,28.44333333333334,11.454744525547445,17.82536231884058,10.319565217391304,5.244649446494464,12.326373626373625,17.1,-5.1,Overcast,5.333333333333333,1923.3333333333333,8.628822806478066
Netherlands,North Holland,Amsterdam,"935,521",NL,2031,3118,4702,96,,52.3730796,4.8924534,18.666666666666668,23.03,11.303558394160584,17.620652173913044,10.214855072463767,5.146494464944649,12.12967032967033,17.1,-5.6,Overcast,4.0,2009.0,8.628822806478066
Netherlands,Gelderland,Apeldoorn,"168,265",NL,1292,2154,3347,89,,52.1795738,5.9300775,19.0,16.683333333333334,11.207390510948905,18.01014492753623,10.281521739130435,4.623616236162362,11.801465201465202,17.2,-5.3,Overcast,5.333333333333333,1886.6666666666667,8.657247006970069
Netherlands,Gelderland,Arnhem,"167,671",NL,1129,1986,4461,92,,52.0056642,5.8762345,18.333333333333332,19.133333333333336,11.22655109489051,18.089130434782607,10.348188405797103,4.504428044280444,11.849450549450548,17.0,-4.2,Overcast,6.666666666666667,1889.3333333333333,8.685342271422714
Netherlands,North Brabant,Breda,"188,277",NL,1139,2087,4074,93,,51.5887845,4.7760237,18.0,17.616666666666664,11.661678832116788,18.429710144927537,10.698188405797103,5.053136531365313,12.353479853479854,17.9,-3.2,Overcast,5.333333333333333,1815.3333333333333,8.740576558015581
Netherlands,South Holland,Delft,"109,452",NL,1383,2228,3576,91,,51.9994572,4.3627245,21.0,23.52,11.576368613138687,17.961231884057973,10.382608695652175,5.372693726937269,12.486446886446885,18.0,-3.8,Overcast,4.666666666666667,2059.0,8.685342271422714
Netherlands,Overijssel,Deventer,"103,456",NL,1313,2107,2908,88,,52.2694896,6.2364886,16.0,15.306666666666667,11.371897810218979,18.132971014492757,10.425,4.812915129151292,12.004761904761905,17.1,-5.0,Overcast,6.666666666666667,1835.6666666666667,8.647809747847479
Netherlands,Gelderland,Ede,"123,545",NL,1030,1860,2453,88,,52.0716825,5.7455106,19.666666666666668,17.476666666666667,11.314963503649636,18.09710144927536,10.480434782608695,4.639852398523985,11.928205128205127,17.4,-4.9,Overcast,5.333333333333333,1988.0,8.676013519885199
Netherlands,North Brabant,Eindhoven,"246,581",NL,1327,2199,4013,94,,51.4392648,5.478633,17.0,19.390000000000004,11.835310218978103,18.99855072463768,10.971739130434782,4.876014760147601,12.374725274725275,18.1,-3.3,Overcast,9.666666666666666,1749.6666666666667,8.75871193111931
Netherlands,Drenthe,Emmen,"109,311",NL,878,1704,2877,72,,52.7528662,6.9525135,21.333333333333332,21.023333333333333,11.077098540145986,17.72210144927536,10.277536231884058,4.4959409594095945,11.700366300366301,17.3,-4.3,Overcast,7.333333333333333,1895.0,8.58069979499795
Netherlands,Overijssel,Enschede,"161,947",NL,1246,2121,3472,87,,52.2233632,6.8705957,21.666666666666668,20.79,11.316514598540147,18.285144927536226,10.547101449275363,4.459409594095941,11.856043956043955,17.0,-5.4,Overcast,7.333333333333333,1930.0,8.657247006970069
Netherlands,Groningen,Groningen,"244,003",NL,1071,1951,3120,85,,53.2190652,6.5680077,26.333333333333332,29.563333333333336,10.813777372262773,17.23514492753623,9.669202898550724,4.612546125461255,11.634798534798536,16.3,-4.2,Overcast,5.666666666666667,1945.0,8.511691420664208
Netherlands,North Holland,Haarlem,"167,752",NL,1626,2589,3686,93,,52.3837058,4.6435597,18.0,24.03333333333333,11.588503649635037,17.71195652173913,10.233695652173912,5.616974169741698,12.695238095238096,16.9,-3.9,Overcast,3.6666666666666665,2105.0,8.628822806478066
Netherlands,South Holland,The Hague,"565,817",NL,1568,2581,4532,95,,52.0799838,4.3113461,20.0,21.98,11.684671532846714,17.93876811594203,10.419927536231885,5.582656826568266,12.697802197802197,17.6,-3.6,Overcast,6.0,2119.6666666666665,8.676013519885199
Netherlands,Friesland,Leeuwarden,"128,845",NL,1129,1982,2800,70,,53.2005936,5.7918548,21.666666666666668,28.886666666666667,10.954470802919706,17.241304347826087,9.672463768115943,4.945387453874539,11.85970695970696,16.6,-4.3,Overcast,5.666666666666667,1980.6666666666667,8.52166913694137
Netherlands,South Holland,Leiden,"130,269",NL,1397,2222,4593,95,,52.1518157,4.4811089,19.666666666666668,19.576666666666664,11.502737226277372,17.809057971014493,10.28840579710145,5.386346863468635,12.426373626373627,17.3,-4.4,Overcast,5.666666666666667,2072.0,8.666647816728167
Netherlands,Limburg,Maastricht,"125,464",NL,1333,2181,3610,88,,50.8512438,5.6909768,20.333333333333332,28.396666666666672,11.867518248175182,19.005434782608695,10.959420289855073,4.831734317343174,12.553479853479855,17.9,-1.7,Overcast,7.0,1905.0,8.829924005740057
Netherlands,Gelderland,Nijmegen,"186,798",NL,1240,2164,3188,90,,51.8425749,5.8389606,15.666666666666666,14.653333333333334,11.563503649635035,18.360869565217392,10.663768115942029,4.884132841328413,12.23150183150183,17.5,-3.6,Overcast,6.0,1845.6666666666667,8.703893634686345
Netherlands,South Holland,Rotterdam,"671,221",NL,1599,2615,3894,94,,51.9244424,4.47775,17.0,19.71666666666667,11.721441605839416,18.21449275362319,10.665579710144927,5.344280442804428,12.554945054945055,17.2,-2.6,Overcast,4.0,1981.0,8.694636234112341
Netherlands,North Brabant,Tilburg,"229,940",NL,1290,2238,3562,93,,51.5856184,5.0660616,17.333333333333332,22.446666666666662,11.737408759124088,18.664492753623186,10.804347826086957,4.990405904059041,12.375091575091576,18.1,-3.2,Overcast,5.0,1765.6666666666667,8.740576558015581
Netherlands,Utrecht,Utrecht,"374,409",NL,1787,2718,4136,95,,52.0907006,5.1215634,18.333333333333332,20.16,11.50985401459854,18.118115942028986,10.578260869565216,5.018081180811809,12.215018315018314,17.4,-4.6,Overcast,3.6666666666666665,1946.6666666666667,8.676013519885199
Netherlands,Limburg,Venlo,"103,688",NL,1121,1942,3938,76,,51.3924489,6.1511724,18.0,18.083333333333336,11.84206204379562,18.9213768115942,10.989492753623187,4.869372693726937,12.468498168498169,17.4,-2.8,Overcast,8.666666666666666,1755.0,8.75871193111931
Netherlands,Overijssel,Zwolle,"133,065",NL,1168,1992,3073,87,,52.5089759,6.0943765,18.666666666666668,18.526666666666667,11.314416058394158,17.9518115942029,10.32427536231884,4.8756457564575655,11.996703296703298,17.7,-3.9,Overcast,6.0,1872.6666666666667,8.619273892988929
Norway,Oslo,Oslo,"717,710",NO,1569,2721,3963,95,,59.9133301,10.7389701,68.66666666666667,158.96999999999997,7.079288321167883,16.752173913043478,6.911956521739131,-3.1199261992619927,7.593772893772893,9.0,-10.2,Overcast,4.333333333333333,1992.6666666666667,7.314472099220993
Norway,Vestland,Bergen,"291,940",NO,1148,2242,3736,93,,60.3943055,5.3259192,70.66666666666667,200.06000000000003,7.937043795620438,14.568478260869563,7.434420289855071,1.2136531365313652,8.415018315018315,10.7,-8.9,Overcast,4.666666666666667,3217.6666666666665,7.198981652316523
Norway,Trøndelag,Trondheim,"214,565",NO,1241,2284,4097,88,,63.4304475,10.3952118,89.33333333333333,175.21,6.858667883211679,15.109782608695653,5.736956521739131,-0.784870848708487,7.2384615384615385,10.5,-10.4,Overcast,4.333333333333333,2555.6666666666665,6.3450149548995505
Norway,Rogaland,Stavanger,"149,048",NO,1356,2341,3990,87,,58.9699675,5.7318101,54.0,113.30666666666669,8.697718978102191,14.67463768115942,7.507971014492753,2.698154981549816,9.813553113553112,10.6,-5.0,Overcast,5.333333333333333,2805.3333333333335,7.530850420254202
Norway,Østfold,Fredrikstad,"130,921",NO,1164,2181,3009,72,,59.1862013,10.8680241,48.333333333333336,97.76666666666665,8.423905109489052,16.404710144927535,6.8710144927536225,0.5797047970479705,9.712087912087913,9.2,-7.7,Overcast,6.666666666666667,1669.3333333333333,7.4860071443214435
Norway,Agder,Kristiansand,"116,986",NO,705,1497,3666,70,,58.0856276,7.931858,52.0,148.63333333333333,8.709580291970802,15.661594202898552,7.621376811594203,1.7686346863468636,9.671428571428573,10.6,-6.8,Overcast,8.0,2431.6666666666665,7.702693655186551
Norway,Buskerud,Drammen,"104,487",NO,890,1741,3317,77,,59.6964936,10.175642,71.33333333333333,201.01666666666665,6.12919708029197,15.756521739130436,6.082608695652173,-4.261254612546125,6.757509157509158,8.7,-9.7,Overcast,4.666666666666667,1915.0,7.362410055350554
Moldova, Transnistria,Tiraspol,"133,807",MD,186,546,264,41,,46.8566229,29.6059359,19.0,22.866666666666664,12.787135036496352,24.268115942028984,11.646739130434783,2.255719557195572,12.787179487179488,17.2,-9.6,Overcast,19.0,835.3333333333334,9.283219321443214
Lithuania,Vilnius,Vilnius,"592,156",LT,764,1414,1836,83,,54.6870458,25.2829111,68.66666666666667,91.81666666666666,8.948448905109489,18.58478260869565,8.578260869565216,-0.6538745387453874,9.112454212454212,12.7,-8.7,Overcast,6.666666666666667,1752.6666666666667,8.301668829438295
Lithuania,Kaunas,Kaunas,"304,210",LT,667,1334,1428,78,,54.8982139,23.9044817,60.0,70.07,9.533850364963504,18.979347826086958,8.881159420289856,0.32324723247232473,9.787545787545788,13.8,-7.0,Overcast,5.0,1552.3333333333333,8.268780186551867
Lithuania,Šiauliai,Šiauliai,"110,463",LT,474,967,1325,72,,55.9340823,23.3157775,64.0,78.16666666666667,8.348175182481752,17.588768115942027,7.760869565217392,-0.8361623616236161,8.716849816849816,10.1,-7.8,Overcast,6.0,1530.3333333333333,8.0974467199672
Latvia,Riga,Riga,"620,974",LV,619,1270,1509,82,,56.9493977,24.1051846,72.33333333333333,107.84666666666668,8.488868613138685,17.817753623188405,7.779347826086957,-0.8870848708487084,9.082051282051282,9.0,-8.4,Overcast,4.333333333333333,1799.6666666666667,7.913439124641246
Luxembourg,Luxembourg,Luxembourg,"134,697",LU,1866,2776,5130,89,,49.8158683,6.1296751,22.666666666666668,22.47,10.545985401459856,18.23804347826087,9.685869565217391,3.2099630996309965,10.921245421245422,15.0,-5.0,Overcast,9.0,1917.0,8.958042189421896
Montenegro,Podgorica,Podgorica,"173,024",ME,539,1047,1100,69,,42.4415238,19.2621081,1.0,2.0066666666666664,16.322262773722624,26.70108695652174,14.330072463768113,7.774538745387455,16.32857142857143,20.0,-1.9,Overcast,32.666666666666664,1438.0,9.703140272652726
Spain,Castilla–La Mancha,Albacete,"173,206",ES,831,1464,1945,74,,38.9950921,-1.8559154,4.333333333333333,2.706666666666667,16.21961678832117,26.206884057971013,14.500362318840581,7.364944649446494,16.65054945054945,21.2,-0.4,Overcast,36.0,605.0,9.985381867568675
Spain,Community of Madrid,Alcalá de Henares,"199,184",ES,867,1573,1673,85,,40.481954,-3.363981,3.3333333333333335,1.61,15.938686131386861,26.583695652173915,13.998913043478261,6.881918819188191,16.128205128205128,20.4,-0.1,Overcast,38.0,882.3333333333334,9.86835913284133
Spain,Community of Madrid,Alcobendas,"119,416",ES,988,1656,2594,74,,40.5400082,-3.6358494,5.0,3.3366666666666664,15.222901459854015,25.611231884057972,13.352173913043478,6.282656826568266,15.486446886446883,19.5,0.5,Overcast,35.666666666666664,901.0,9.862646084460843
Spain,Andalusia,Algeciras,"123,639",ES,457,987,1980,64,,36.1311725,-5.4473991,0.0,0.0,18.4757299270073,23.47246376811594,16.704710144927535,14.079335793357934,19.57875457875458,22.8,9.3,Overcast,27.666666666666668,1158.0,10.19923429684297
Spain,Valencian Community,Alicante,"349,282",ES,816,1461,1921,86,,38.3436365,-0.4881708,0.0,0.0,19.56706204379562,26.480072463768117,17.44891304347826,13.28081180811808,20.95970695970696,27.1,7.3,Overcast,37.0,404.6666666666667,10.033899323493236
Spain,Andalusia,Almería,"200,578",ES,623,1298,1423,74,,36.8414197,-2.4628135,0.0,0.0,20.074726277372264,27.420652173913044,18.254347826086956,13.459040590405904,21.05567765567766,25.1,8.2,Overcast,49.0,331.0,10.143601189011891
Spain,Extremadura,Badajoz,"150,190",ES,604,1200,1524,74,,38.878187,-6.9701115,0.3333333333333333,0.18666666666666668,17.91724452554745,26.650000000000002,16.304347826086957,10.012177121771218,18.566300366300368,21.1,1.6,Overcast,54.333333333333336,790.3333333333334,9.99081935219352
Spain,Catalonia,Badalona,"225,957",ES,1479,2170,2126,73,,41.4493539,2.248254,1.3333333333333333,0.7233333333333333,17.1088503649635,24.868478260869566,14.979347826086958,10.077121771217714,18.397069597069596,22.2,3.4,Overcast,19.0,879.0,9.787143357933578
Spain,Catalonia,Barcelona,"1,660,122",ES,1268,2087,2248,90,,41.3825802,2.177073,0.6666666666666666,0.7466666666666667,17.083759124087592,24.827536231884057,15.118115942028988,10.011808118081182,18.262271062271065,22.8,4.5,Overcast,17.666666666666668,928.6666666666666,9.793035096350962
Spain,Basque Country,Bilbao,"346,096",ES,952,1660,2067,81,,43.2630018,-2.9350039,4.333333333333333,9.450000000000001,15.27919708029197,20.77572463768116,13.682246376811595,10.00959409594096,16.56776556776557,23.3,5.3,Overcast,5.666666666666667,2012.6666666666667,9.628754827798279
Spain,Castile and León,Burgos,"174,451",ES,717,1343,2060,77,,42.343926,-3.696977,22.333333333333332,19.18,12.102554744525547,20.143115942028984,10.17572463768116,4.945756457564577,13.026007326007328,19.0,0.1,Overcast,8.333333333333334,1249.6666666666667,9.70923749487495
Spain,Andalusia,Cádiz,"111,811",ES,924,1501,1938,77,,36.5297438,-6.2928976,0.0,0.0,18.84771897810219,24.74746376811594,17.38152173913043,13.114391143911439,20.05677655677656,23.4,6.1,Overcast,59.0,848.0,10.169038417384174
Spain,Region of Murcia,Cartagena,"218,050",ES,630,1206,1819,79,,37.6152488,-0.9876857,0.0,0.0,19.40994525547445,26.479710144927537,17.3981884057971,12.944280442804429,20.714652014652017,26.1,7.8,Overcast,31.666666666666668,458.6666666666667,10.086731006560065
Spain,Valencian Community,Castellón de la Plana,"176,238",ES,613,1158,1785,70,,39.9860347,-0.0377354,0.3333333333333333,0.023333333333333334,18.00985401459854,25.571014492753623,16.098913043478262,11.092250922509225,19.164468864468866,24.0,4.7,Overcast,29.333333333333332,557.0,9.907983866338665
Spain,Andalusia,Córdoba,"323,763",ES,657,1233,1900,77,,37.8845813,-4.7760138,0.0,0.0,19.574361313868614,29.55036231884058,17.771014492753622,10.764944649446495,20.05677655677656,22.7,4.3,Overcast,67.0,817.6666666666666,10.07099733497335
Spain,Galicia,A Coruña,"247,376",ES,697,1352,1760,78,,43.3709703,-8.3959425,3.3333333333333335,1.8666666666666665,15.241605839416062,19.75652173913043,13.641666666666667,11.014022140221403,16.49120879120879,21.5,5.2,Overcast,14.0,2148.0,9.622451957769577
Spain,Andalusia,Dos Hermanas,"138,981",ES,800,1359,1847,66,,37.283689,-5.9226718,0.0,0.0,19.60875912408759,27.963405797101448,18.14927536231884,11.800369003690037,20.38901098901099,24.1,5.7,Overcast,72.33333333333333,739.0,10.112739114391143
Spain,Valencian Community,Elche,"238,293",ES,613,1277,1658,84,,38.2653307,-0.6988391,0.3333333333333333,0.04666666666666667,19.351277372262775,26.761231884057974,17.542391304347827,12.674538745387453,20.316483516483515,26.8,5.6,Overcast,35.0,455.6666666666667,10.039232410824109
Spain,Community of Madrid,Fuenlabrada,"188,736",ES,897,1592,1743,72,,40.282476,-3.7923422,5.0,2.123333333333333,15.796076642335766,26.34927536231884,13.924275362318838,6.851291512915129,15.898534798534795,20.3,-0.1,Overcast,38.333333333333336,888.6666666666666,9.87974561295613
Spain,Asturias,Gijón,"268,313",ES,707,1389,1966,76,,43.5449422,-5.66275,3.0,4.666666666666667,15.058120437956205,19.826811594202894,13.284420289855072,10.550184501845019,16.50512820512821,23.1,6.8,Overcast,6.0,1937.6666666666667,9.603443921689216
Spain,Catalonia,Girona,"104,320",ES,973,1580,1895,79,,41.9793006,2.8199439,1.0,0.07,16.70082116788321,24.878623188405797,14.890942028985506,9.354981549815498,17.554945054945055,23.7,1.7,Overcast,15.333333333333334,955.3333333333334,9.739496699466995
Spain,Andalusia,Granada,"230,595",ES,712,1334,2044,79,,37.1734995,-3.5995337,1.3333333333333333,0.7000000000000001,17.249817518248175,27.367028985507243,15.396739130434783,8.476014760147601,17.604395604395606,22.9,1.3,Overcast,58.666666666666664,759.6666666666666,10.123068091430916
Spain,Andalusia,Huelva,"142,532",ES,680,1265,1525,76,,37.2575874,-6.9484945,0.0,0.0,18.726642335766424,25.27463768115942,17.3731884057971,12.477859778597786,19.67802197802198,23.0,5.9,Overcast,76.33333333333333,722.3333333333334,10.117908702337024
Spain,Andalusia,Jaén,"111,888",ES,556,1133,1423,61,,37.9553976,-3.4937431,0.3333333333333333,0.2333333333333333,18.817791970802922,28.98985507246377,16.79492753623188,9.97527675276753,19.356776556776556,24.1,3.1,Overcast,62.0,749.3333333333334,10.065730801558017
Spain,Andalusia,Jérez de la Frontera,"213,231",ES,465,989,1694,66,,36.6816936,-6.1377402,0.0,0.0,18.816149635036496,25.579347826086956,17.40144927536232,12.271955719557194,19.905128205128207,23.4,5.4,Overcast,57.0,795.3333333333334,10.15889371668717
Spain,Castile and León,León,"121,281",ES,738,1303,1999,75,,42.5989995,-5.5682413,14.666666666666666,10.22,12.102463503649636,20.986231884057972,10.34927536231884,4.383025830258302,12.556410256410258,16.3,-1.1,Overcast,18.0,1104.3333333333333,9.690900020500205
Spain,Catalonia,Lleida,"143,094",ES,596,1229,1759,63,,41.6147605,0.6267842,0.3333333333333333,0.04666666666666667,17.057572992700727,27.083333333333332,16.038768115942027,7.230258302583026,17.706959706959708,20.9,1.3,Overcast,24.333333333333332,580.3333333333334,9.775318542435425
Spain,La Rioja,Logroño,"150,583",ES,568,1118,2049,67,,42.4661196,-2.4396676,5.333333333333333,3.1733333333333333,14.538594890510948,23.057971014492754,13.066304347826087,6.7284132841328415,15.167032967032968,18.9,1.6,Overcast,9.333333333333334,920.6666666666666,9.697027726527265
Spain,Community of Madrid,Madrid,"3,332,035",ES,1177,2015,2580,92,,40.416782,-3.703507,5.0,2.0066666666666664,15.855109489051092,26.59094202898551,14.044927536231887,6.730627306273063,15.889010989010991,20.6,0.5,Overcast,38.333333333333336,847.3333333333334,9.874058917589174
Spain,Andalusia,Málaga,"586,384",ES,929,1617,1700,80,,36.7213028,-4.4216366,0.0,0.0,19.651277372262772,26.353985507246374,17.932608695652174,13.578966789667895,20.64029304029304,27.3,6.9,Overcast,55.0,539.0,10.153806549815501
Spain,Andalusia,Marbella,"156,295",ES,1273,1924,2160,78,,36.508976,-4.88562,0.0,0.0,19.702098540145986,26.43695652173913,17.82608695652174,13.845756457564574,20.603296703296706,24.9,9.8,Overcast,56.666666666666664,676.6666666666666,10.169038417384174
Spain,Catalonia,Mataró,"129,870",ES,902,1575,1975,71,,41.5398348,2.4448926,0.6666666666666666,0.09333333333333334,16.827645985401457,24.371739130434783,14.681159420289855,10.015498154981548,18.13296703296703,20.7,4.0,Overcast,18.0,903.0,9.781238120131203
Spain,Community of Madrid,Móstoles,"211,265",ES,1024,1703,1560,71,,40.3238525,-3.8649214,3.6666666666666665,1.6333333333333335,15.47956204379562,25.687681159420286,13.619927536231886,6.7154981549815504,15.73919413919414,19.5,0.3,Overcast,41.0,902.0,9.87974561295613
Spain,Region of Murcia,Murcia,"469,177",ES,661,1305,1750,82,,37.9923795,-1.1305431,0.0,0.0,19.925182481751825,28.047826086956523,18.085507246376814,12.666789667896678,20.778388278388277,27.4,7.1,Overcast,33.333333333333336,477.6666666666667,10.060453351783517
Spain,Galicia,Ourense,"104,250",ES,569,1147,1514,74,,42.1939629,-7.537124,26.333333333333332,65.61333333333333,11.19352189781022,18.030434782608694,9.155072463768116,5.533579335793358,11.96080586080586,16.3,-0.1,Overcast,23.666666666666668,2261.0,9.721386316113158
Spain,Asturias,Oviedo,"217,584",ES,659,1300,2193,77,,43.3618625,-5.8483581,9.0,11.526666666666669,13.853284671532847,18.993478260869566,12.369202898550723,8.82029520295203,15.15311355311355,21.0,2.0,Overcast,5.666666666666667,2012.3333333333333,9.622451957769577
Spain,Balearic Islands,Palma de Mallorca,"423,350",ES,1186,1930,1846,79,,39.5695818,2.6500745,0.3333333333333333,3.1966666666666668,18.57992700729927,25.65072463768116,16.229347826086958,12.207011070110699,20.134065934065937,21.7,7.5,Overcast,24.666666666666668,686.0,9.941449887248872
Spain,Canary Islands,Las Palmas,"378,027",ES,826,1484,1761,81,,27.9580004,-15.6062305,0.3333333333333333,0.21,15.229835766423358,21.184057971014493,12.99782608695652,10.225461254612545,16.434432234432236,24.9,3.6,Overcast,31.333333333333332,729.6666666666666,10.725354274292743
Spain,Navarre,Pamplona,"205,762",ES,900,1585,1953,79,,42.8181992,-1.6440089,11.666666666666666,10.43,13.291149635036497,20.78731884057971,11.622463768115942,6.323247232472324,14.316483516483517,19.2,-0.2,Overcast,9.333333333333334,1339.0,9.66623274907749
Spain,Catalonia,Sabadell,"218,300",ES,984,1637,2228,87,,41.5421013,2.1138977,1.3333333333333333,0.7233333333333333,16.36094890510949,24.46992753623188,14.468478260869563,9.165682656826569,17.21868131868132,22.0,2.7,Overcast,17.0,997.0,9.781238120131203
Spain,Castile and León,Salamanca,"143,954",ES,625,1189,1636,78,,40.9651572,-5.6640182,9.666666666666666,7.886666666666667,13.678193430656934,23.028985507246375,11.601086956521739,5.7284132841328415,14.216117216117215,19.0,-1.0,Overcast,31.0,939.0,9.828086920869207
Spain,Canary Islands,San Cristóbal de La Laguna,"159,034",ES,899,1539,1732,63,,28.4857715,-16.3159422,0.0,0.0,17.409306569343066,19.371376811594203,15.693115942028983,15.034686346863468,19.517948717948716,26.2,11.5,Light Drizzle,8.0,1567.3333333333333,10.692088335383353
Spain,Basque Country,San Sebastián,"188,743",ES,985,1673,2636,81,,43.3224219,-1.9838889,4.333333333333333,7.419999999999999,15.58257299270073,20.505797101449275,13.84963768115942,10.733579335793358,17.170695970695974,23.0,4.9,Overcast,8.333333333333334,2465.6666666666665,9.622451957769577
Spain,Canary Islands,Santa Cruz de Tenerife,"209,395",ES,912,1567,1741,78,,28.467178,-16.2507843,0.0,0.0,20.980200729927006,23.569202898550724,19.384057971014492,17.960885608856092,22.97362637362637,28.9,15.2,Overcast,10.0,1259.6666666666667,10.696266748667487
Spain,Cantabria,Santander,"172,726",ES,691,1372,2027,79,,43.4618932,-3.8100255,3.3333333333333335,4.503333333333333,15.364507299270073,20.25072463768116,13.523550724637682,10.802583025830259,16.814285714285717,24.2,5.7,Overcast,9.333333333333334,2134.6666666666665,9.609796935219352
Spain,Andalusia,Seville,"684,025",ES,753,1393,1817,82,,37.3886303,-5.9953403,0.0,0.0,20.084215328467153,28.771014492753626,18.65905797101449,12.009963099630996,20.757875457875457,24.0,5.5,Overcast,70.0,724.0,10.10755831283313
Spain,Catalonia,Tarragona,"138,262",ES,855,1445,1907,80,,41.1172364,1.2546057,0.6666666666666666,0.04666666666666667,17.659306569343066,25.18695652173913,15.638043478260867,10.805904059040591,18.895604395604394,21.3,5.1,Overcast,26.0,763.3333333333334,9.81645881508815
Spain,Catalonia,Terrassa,"225,277",ES,895,1590,2352,74,,41.5629623,2.0100492,2.6666666666666665,1.7033333333333331,15.786861313868615,24.042391304347824,14.018840579710144,8.301476014760146,16.658608058608063,21.0,2.0,Overcast,13.333333333333334,1011.0,9.775318542435425
Spain,Community of Madrid,Torrejón de Ardoz,"137,711",ES,916,1581,2161,73,,40.4587767,-3.4793343,3.3333333333333335,1.61,15.919160583941608,26.56811594202899,13.980072463768115,6.857564575645757,16.10879120879121,20.3,-0.2,Overcast,38.0,882.3333333333334,9.86835913284133
Spain,Valencian Community,Valencia,"807,693",ES,962,1703,2415,89,,39.4697065,-0.3763353,0.0,0.0,18.89060218978102,26.227898550724635,16.919565217391305,12.219188191881917,20.087912087912088,25.4,6.6,Overcast,34.0,564.6666666666666,9.946984030340303
Spain,Castile and León,Valladolid,"297,459",ES,634,1367,2235,80,,41.6521807,-4.728605,8.333333333333334,4.97,13.845711678832116,23.32427536231884,11.981884057971014,5.513284132841329,14.418681318681317,18.3,-0.1,Overcast,24.0,906.3333333333334,9.769384563345636
Spain,Galicia,Vigo,"293,652",ES,667,1302,1964,65,,42.2376602,-8.7247205,3.3333333333333335,1.9366666666666668,15.678010948905108,21.315217391304348,14.130434782608695,10.559778597785977,16.624175824175822,22.8,3.3,Overcast,28.0,2252.6666666666665,9.721386316113158
Spain,Basque Country,Vitoria-Gasteiz,"255,886",ES,1031,1685,2094,81,,42.8465088,-2.6724025,13.0,12.623333333333335,13.026094890510947,19.757246376811594,11.212681159420288,6.708487084870849,14.325641025641024,17.6,2.2,Overcast,3.3333333333333335,1512.6666666666667,9.66623274907749
Spain,Aragon,Zaragoza,"682,513",ES,761,1457,1744,77,,41.6521342,-0.8809428,1.3333333333333333,2.1233333333333335,17.04434306569343,26.41268115942029,15.781884057971013,8.357933579335793,17.472161172161172,19.9,3.2,Overcast,27.666666666666668,582.0,9.769384563345636
Poland,Podlaskie,Białystok,"292,058",PL,654,1148,1323,74,,53.1275051,23.1470509,56.666666666666664,62.580000000000005,9.614233576642334,19.307608695652174,9.181159420289855,0.21697416974169742,9.58058608058608,14.9,-8.0,Overcast,8.0,1452.6666666666667,8.531607718327182
Poland,Silesian,Bielsko-Biała,"166,189",PL,693,1201,1265,75,,49.8120785,19.0291988,55.0,116.52666666666669,10.298357664233576,19.264492753623188,9.679710144927537,1.596678966789668,10.497069597069597,16.6,-7.4,Overcast,7.0,2061.0,8.958042189421896
Poland,Kuyavian-Pomeranian,Bydgoszcz,"328,370",PL,588,1103,1301,75,,53.1297127,18.0294488,36.0,33.46,10.50565693430657,19.356521739130432,9.885144927536233,2.088929889298893,10.53992673992674,15.6,-6.6,Overcast,9.333333333333334,1380.6666666666667,8.531607718327182
Poland,Silesian,Bytom,"148,687",PL,565,1043,1469,64,,50.3470387,18.9231857,37.0,63.56000000000001,10.415784671532847,19.6768115942029,9.992391304347827,1.4309963099630996,10.399999999999999,16.2,-7.1,Overcast,9.666666666666666,1594.3333333333333,8.890559840098401
Poland,Silesian,Chorzów,"101,184",PL,552,1038,1496,78,,50.2884726,18.9703798,40.0,63.14000000000001,10.452372262773721,19.755072463768116,10.005434782608695,1.463468634686347,10.422344322344323,16.2,-7.1,Overcast,7.666666666666667,1628.0,8.899099087740877
Poland,Silesian,Częstochowa,"207,117",PL,570,1033,1256,76,,50.8120466,19.113213,42.666666666666664,59.24333333333334,10.40273722627737,19.544565217391302,9.955434782608695,1.5560885608856088,10.394505494505495,16.6,-6.8,Overcast,10.0,1580.6666666666667,8.838680606806069
Poland,Silesian,Dąbrowa Górnicza,"114,148",PL,587,1077,1278,77,,50.369624,19.2890465,42.0,66.61666666666666,9.938959854014596,19.148913043478263,9.49927536231884,0.9767527675276755,9.968864468864469,15.9,-7.3,Overcast,9.333333333333334,1638.0,8.890559840098401
Poland,Warmian-Masurian,Elbląg,"113,195",PL,632,1074,1384,61,,54.1988997,19.4410857,46.0,59.10333333333333,9.362226277372264,17.888043478260872,8.56557971014493,1.0357933579335794,9.813553113553114,14.9,-13.6,Overcast,7.0,1640.3333333333333,8.378127265272653
Poland,Pomeranian,Gdańsk,"486,492",PL,917,1519,1766,81,,54.4288032,18.798327,42.0,58.146666666666675,10.146532846715328,17.765579710144927,7.785507246376812,3.0232472324723245,11.9018315018315,12.9,-1.9,Overcast,6.0,1454.6666666666667,8.335524784747848
Poland,Pomeranian,Gdynia,"242,141",PL,891,1478,2090,81,,54.5233304,18.6040279,50.666666666666664,68.53,10.115602189781022,18.142391304347825,9.038405797101449,2.2719557195571958,10.875824175824176,16.0,-6.9,Overcast,6.0,1620.6666666666667,8.32475746207462
Poland,Silesian,Gliwice,"170,457",PL,572,1026,1469,64,,50.294113,18.6657306,37.666666666666664,54.53,10.801003649635037,19.989492753623185,10.355797101449275,1.8712177121771219,10.826007326007327,16.4,-6.4,Overcast,12.0,1562.0,8.899099087740877
Poland,Lubusz,Gorzów Wielkopolski,"115,847",PL,596,1113,1235,70,,52.7309926,15.2400451,34.0,33.833333333333336,10.79242700729927,19.23985507246377,10.223550724637683,2.562361623616236,10.997069597069597,16.4,-6.2,Overcast,8.666666666666666,1417.0,8.58069979499795
Poland,Silesian,Katowice,"279,119",PL,631,1137,1576,79,,50.2598987,19.0215852,39.666666666666664,64.67999999999999,10.661678832116788,19.88985507246377,10.193115942028985,1.7081180811808119,10.693772893772895,16.5,-6.7,Overcast,8.0,1634.6666666666667,8.907608015580157
Poland,Świętokrzyskie,Kielce,"183,147",PL,609,1097,1414,74,,50.8540285,20.6099157,45.0,60.27,10.052828467153285,19.480797101449276,9.528260869565218,1.0797047970479705,9.958974358974357,15.7,-7.6,Overcast,8.0,1520.6666666666667,8.829924005740057
Poland,West Pomeranian,Koszalin,"105,905",PL,623,1089,1323,56,,54.2071799,16.2175411,38.333333333333336,56.39666666666667,9.471715328467154,17.0518115942029,8.365942028985508,1.9612546125461254,10.38168498168498,15.4,-5.8,Overcast,10.0,1773.3333333333333,8.367545407954077
Poland,Lesser Poland,Kraków,"804,237",PL,960,1580,1891,83,,50.0619474,19.9368564,40.666666666666664,60.083333333333336,10.636040145985403,20.152898550724636,10.048188405797102,1.6291512915129152,10.54981684981685,16.3,-7.2,Overcast,7.0,1543.6666666666667,8.92453680811808
Poland,Łódź,Łódź,"655,279",PL,712,1338,1620,78,,51.7728245,19.4784857,42.666666666666664,51.123333333333335,10.181569343065693,19.522101449275365,9.670652173913043,1.37380073800738,9.998168498168498,15.0,-6.2,Overcast,8.0,1512.0,8.713116512915128
Poland,Lublin,Lublin,"330,447",PL,790,1323,1364,77,,51.2181945,22.5546776,51.333333333333336,77.53666666666668,10.206660583941606,19.69710144927536,9.568840579710145,1.148339483394834,10.24871794871795,16.0,-6.9,Overcast,8.333333333333334,1535.6666666666667,8.78566265887659
Poland,Warmian-Masurian,Olsztyn,"167,844",PL,695,1182,1355,70,,53.776644,20.4777531,48.333333333333336,60.923333333333325,9.59771897810219,18.555434782608696,8.896014492753624,0.8959409594095942,9.88901098901099,14.6,-7.7,Overcast,8.0,1485.3333333333333,8.44067741902419
Poland,Opole,Opole,"126,300",PL,758,1230,1476,74,,50.6787929,17.9298844,34.333333333333336,43.51666666666666,11.03932481751825,20.121014492753623,10.483333333333334,2.319188191881919,11.076190476190478,16.4,-6.7,Overcast,9.0,1480.6666666666667,8.856097755227553
Poland,Masovian,Płock,"111,927",PL,703,1166,1278,71,,52.5464521,19.7008606,43.666666666666664,39.78333333333334,10.29279197080292,19.418478260869566,9.62427536231884,1.63210332103321,10.339926739926739,15.9,-7.0,Overcast,9.333333333333334,1418.3333333333333,8.609687833128332
Poland,Greater Poland,Poznań,"540,146",PL,836,1420,1831,80,,52.4006632,16.9197326,34.0,29.77333333333333,10.81925182481752,19.824637681159423,10.189130434782609,2.311439114391144,10.797435897435896,16.3,-6.4,Overcast,10.0,1395.3333333333333,8.628822806478066
Poland,Masovian,Radom,"196,918",PL,564,1008,1103,73,,51.4171606,21.1609448,43.666666666666664,56.67666666666667,10.462956204379562,19.840579710144926,9.902536231884058,1.5977859778597785,10.34908424908425,16.1,-6.7,Overcast,8.333333333333334,1444.3333333333333,8.75871193111931
Poland,Silesian,Ruda Śląska,"131,062",PL,607,1085,1594,64,,50.2858001,18.8747933,37.0,57.56333333333334,10.282481751824816,19.541666666666668,9.848550724637683,1.3003690036900368,10.276556776556777,16.1,-7.3,Overcast,9.0,1592.0,8.899099087740877
Poland,Silesian,Rybnik,"131,323",PL,541,1010,1351,76,,50.1105691,18.5531874,41.0,60.06,11.010127737226277,20.277173913043477,10.572463768115941,2.0324723247232472,10.995604395604396,16.8,-5.5,Overcast,8.333333333333334,1616.0,8.92453680811808
Poland,Podkarpackie,Rzeszów,"197,536",PL,689,1200,2063,74,,50.013319,22.0161677,46.333333333333336,78.42333333333333,10.722901459854015,20.132246376811594,10.051449275362318,1.7671586715867158,10.779120879120878,17.2,-8.6,Overcast,8.333333333333334,1674.0,8.932956611316111
Poland,Silesian,Sosnowiec,"188,151",PL,600,1093,1255,77,,50.2712401,19.2155628,39.333333333333336,62.18333333333333,10.636587591240877,19.91086956521739,10.179347826086957,1.6804428044280442,10.613186813186813,16.4,-6.8,Overcast,8.666666666666666,1619.6666666666667,8.899099087740877
Poland,West Pomeranian,Szczecin,"390,278",PL,668,1166,1577,77,,53.4298114,14.5928676,33.666666666666664,34.32333333333333,10.737408759124088,18.75144927536232,10.091666666666667,2.7771217712177116,11.19010989010989,16.1,-5.8,Overcast,6.333333333333333,1440.6666666666667,8.481508333333334
Poland,Lesser Poland,Tarnów,"103,515",PL,518,966,1073,73,,50.0259883,20.9640584,42.666666666666664,71.09666666666668,10.924817518248174,20.31231884057971,10.293115942028985,2.0132841328413282,10.919047619047621,17.7,-9.6,Overcast,8.666666666666666,1662.0,8.932956611316111
Poland,Kuyavian-Pomeranian,Toruń,"195,263",PL,484,926,1637,76,,53.0145361,18.5965831,37.666666666666664,33.81,10.429927007299272,19.382608695652173,9.683333333333334,1.9738007380073803,10.527838827838828,15.8,-6.7,Overcast,9.333333333333334,1372.6666666666667,8.54150467404674
Poland,Silesian,Tychy,"122,605",PL,569,1054,1473,64,,50.1264981,19.0067846,38.333333333333336,62.18333333333334,10.610127737226279,19.879710144927532,10.09855072463768,1.6712177121771217,10.62930402930403,16.3,-6.3,Overcast,8.0,1604.6666666666667,8.916087976629766
Poland,Lower Silesian,Wałbrzych,"101,082",PL,499,1015,1253,59,,50.7659054,16.2825424,47.666666666666664,75.46,9.533120437956203,18.282246376811592,8.856159420289856,1.1188191881918819,9.724908424908426,13.4,-11.6,Overcast,10.333333333333334,1737.6666666666667,8.838680606806069
Poland,Masovian,Warsaw,"1,861,644",PL,1217,1978,2042,85,,52.2319581,21.0067249,45.666666666666664,46.923333333333325,10.485310218978102,19.922101449275367,9.984057971014492,1.5350553505535056,10.336263736263737,16.3,-6.1,Overcast,9.666666666666666,1462.3333333333333,8.657247006970069
Poland,Kuyavian-Pomeranian,Włocławek,"101,450",PL,569,902,1083,70,,52.6655636,19.0961297,38.0,35.63,10.529014598540146,19.568840579710145,9.833695652173912,1.963837638376384,10.595238095238095,16.0,-5.5,Overcast,6.666666666666667,1395.6666666666667,8.59040065600656
Poland,Lower Silesian,Wrocław,"674,132",PL,977,1592,1688,79,,51.1263106,16.9781963,31.666666666666668,33.17999999999999,11.022536496350364,19.76485507246377,10.432246376811595,2.677859778597786,11.064468864468864,15.7,-6.4,Overcast,10.666666666666666,1447.6666666666667,8.794580043050432
Poland,Silesian,Zabrze,"154,642",PL,717,1147,1489,64,,50.3142806,18.7815763,37.0,57.56333333333334,10.645255474452556,19.90434782608696,10.216304347826087,1.6597785977859778,10.637728937728937,16.4,-7.0,Overcast,9.0,1592.0,8.899099087740877
Poland,Lubusz,Zielona Góra,"139,132",PL,640,1107,1490,71,,51.9383777,15.5050408,31.0,34.696666666666665,10.782025547445254,19.54891304347826,10.239492753623189,2.393726937269373,10.794139194139195,16.9,-6.7,Overcast,11.0,1429.6666666666667,8.694636234112341
Romania,Arad,Arad,"145,078",RO,295,708,837,70,,46.1753793,21.3196342,19.333333333333332,17.26666666666667,13.213594890510947,23.582971014492752,12.315217391304348,3.6335793357933577,13.148351648351648,19.1,-3.8,Overcast,17.333333333333332,1083.0,9.35479621771218
Romania,Bacău,Bacău,"136,087",RO,264,724,978,55,,46.4228703,26.7163991,35.666666666666664,63.44333333333333,10.914872262773724,21.571376811594202,9.896376811594202,1.4162361623616235,10.600000000000001,16.6,-4.8,Overcast,17.666666666666668,1147.6666666666667,9.32642114596146
Romania,Maramureș,Baia Mare,"108,759",RO,266,714,755,50,,47.6565584,23.5719843,33.0,62.416666666666664,11.743795620437957,21.481884057971016,11.26159420289855,2.518450184501845,11.543956043956044,18.1,-4.1,Overcast,14.666666666666666,1630.0,9.201940149651495
Romania,Brăila,Brăila,"154,686",RO,390,871,992,67,,45.2716092,27.9742932,12.666666666666666,22.353333333333335,13.571076642335768,24.69746376811594,12.466304347826087,3.3542435424354244,13.581318681318681,19.5,-3.7,Overcast,23.0,809.6666666666666,9.444770817958181
Romania,Bucharest,Bucharest,"1,716,961",RO,525,1116,1391,81,,44.4361414,26.1027202,15.0,34.29999999999999,13.77919708029197,25.565579710144927,12.47355072463768,3.1125461254612543,13.771794871794873,20.4,-3.6,Overcast,24.0,927.0,9.51836070110701
