Country,Province,City,Pop.,ABBR,Rent,Total COL,Sal,QOL,Prov. ABBR,Lat,Long,Snow Days/Y,Snow Fall/Y,Total Temps Ave,Summer Temps Ave,Spring Temps Ave,Winter Temps Ave,Fall Temps Ave,Highest 3 Year,Lowest 3 Year,Most Days,Sunny Days/Y,Hours Rained/Y,Winter Daylight,Cluster,Ben Score
Belgium,Brussels,Anderlecht,"125,883",BE,0.71548182631273,0.7668717883914287,0.5884962738178368,-0.049977026759202514,,50.8390983,4.3296526,-0.47465625278312523,-0.41268856796858616,-0.1861006368379693,-0.6531224373518325,-0.12173181726980548,0.12308756663135251,-0.10548652386634105,17.7,-0.7,Overcast,-0.7945169887379236,0.5895363789486182,-0.3355913879949705,0,-4
Belgium,Flanders,Antwerp,"542,417",BE,0.3578328942910608,0.6341420953444096,0.4921427485036943,1.0656118586962129,,51.2211097,4.3997081,-0.33548246022311573,-0.4138759624903273,-0.2145972173326689,-0.6879839428600761,-0.1464405432085177,0.12740857060125238,-0.16296842701364314,17.3,-1.5,Overcast,-0.770088290176784,0.5663460947574962,-0.39797539229900875,0,2
Belgium,Flanders,Bruges,"119,748",BE,0.6347223900497725,0.727613710166254,0.1509564949323047,0.39625852742296364,,51.2085526,3.226772,-0.5210475169697951,-0.47621417488173357,-0.31916245896367784,-0.9780854742277187,-0.3885599106079577,0.20748504842641835,-0.16472359962882846,17.2,-3.5,Overcast,-0.770088290176784,0.6808481229511605,-0.39797539229900875,0,-2
Belgium,Brussels,Brussels,"195,546",BE,1.0039083843947214,1.026722877596156,0.9186255654679313,1.0656118586962129,,50.8465573,4.351697,-0.47465625278312523,-0.41268856796858616,-0.20094685942937385,-0.6667980118598891,-0.13872723722765046,0.11086004475908245,-0.11908911163402416,17.7,-0.7,Overcast,-0.7945169887379236,0.5895363789486182,-0.3355913879949705,2,0
Belgium,Wallonia,Charleroi,"203,950",BE,0.4126339403266392,0.4471988657007207,0.03959709272497616,0.7681214892414354,,50.4116233,4.444528,-0.33548246022311573,-0.4530599817077827,-0.36833874833324026,-0.8235066443374651,-0.3460713607133481,-0.01610392295223162,-0.2698145599630172,17.2,-1.8,Overcast,-0.7456595916156448,0.8221639172408092,-0.2622063179041277,0,0
Belgium,Flanders,Ghent,"269,191",BE,0.484740579847137,0.6210560692693513,0.4139542320602509,0.7681214892414354,,51.0538286,3.7250121,-0.567438781156465,-0.4518725871860416,-0.23253518765430634,-0.7305799946064852,-0.20814699105545947,0.1525991043832218,-0.16702726368625795,17.5,-2.0,Overcast,-0.8678030844213419,0.4083622837054791,-0.3728848303934997,0,0
Belgium,Wallonia,Liège,"194,994",BE,0.07805913295152926,0.22473642242473094,0.6627358752893892,-0.19872221148659122,,50.6450944,5.5736112,-0.14991740347643637,-0.08556137722892071,-0.21173880905377382,-0.6067151599228504,-0.1568992631825756,0.062133829779360064,-0.14508760599644765,17.7,-1.9,Overcast,-0.5502300031265295,1.0859533999148199,-0.29870088609231726,0,-4
Belgium,Flemish,Leuven,"103,868",BE,0.9087276202276642,0.7257442778698171,0.7804135414517434,1.0656118586962129,,50.879202,4.7011675,-0.3664099696808957,-0.3574747227076265,-0.23621028401288557,-0.7056949327967407,-0.2146836910392459,0.10203416430992535,-0.13938329499709767,18.1,-1.3,Overcast,-0.7212308930545054,0.4301031751346558,-0.3355913879949705,2,0
Belgium,Wallonia,Namur,"114,007",BE,0.04633221156251022,0.20417266716392515,0.02143208385427718,-0.27309480385028556,,50.4665284,4.8661892,-0.25816368657866595,-0.3200717952727826,-0.2988035918344047,-0.7720550976227233,-0.26436261091602054,0.037954594798856475,-0.19170937858729392,17.9,-2.9,Overcast,-0.6723734959322265,1.038123438770631,-0.2622063179041277,0,-4
Belgium,Brussels,Schaerbeek,"129,853",BE,0.6837549049237109,0.7014416580161376,0.7180206848958642,0.024395565604491843,,50.8676041,4.3737121,-0.47465625278312523,-0.41268856796858616,-0.20890956820629603,-0.6741962734790016,-0.14748641520592407,0.10479225195028677,-0.12720678497925325,17.7,-0.7,Overcast,-0.7945169887379236,0.5895363789486182,-0.3355913879949705,0,-4
Austria,Styria,Graz,"305,323",AT,0.008836759011851351,0.38550759991830336,0.4818755695767775,0.7681214892414354,,47.0708678,15.4382786,-0.11898989401865642,-0.260702069185729,-0.5701482063095175,-0.1179815135693261,-0.38110807262644125,-0.8116283346872059,-0.7406396139863356,18.4,-6.5,Overcast,-0.4769439074431112,-0.49171062146243705,0.27390976084918095,0,5
Austria,Tyrol,Innsbruck,"132,471",AT,0.8625793709345456,0.8192158926916615,0.5553253880539516,0.5450037121503524,,47.2654296,11.3927685,2.880978523385993,4.688358297431062,-0.4748873753006261,-0.3610031982698854,-0.4323558004993251,-0.5119161444345748,-0.4591538058260759,18.0,-8.7,Overcast,-0.7212308930545054,1.5301922814509972,0.24277689737701588,3,-5
Austria,Carinthia,Klagenfurt,"105,280",AT,0.20785108408842534,0.3817687353254296,-0.06228491354981378,0.2475133426955749,,46.623943,14.3075976,0.2521402194747023,0.4760762315546069,-0.6199953466016781,-0.12123226488681495,-0.48883288835923755,-0.9329841908631177,-0.6897396081459775,15.7,-4.9,Overcast,-1.0143752757881783,-0.17646769573937462,0.3353295742423632,0,0
Austria,Upper Austria,Linz,"213,574",AT,0.19342975618432579,0.52571502215107,0.297856131886653,0.470631119786658,,48.3059078,14.286198,0.592342823510281,0.17447802303237422,-0.3542508789586864,-0.11450657250580352,-0.22095892302368025,-0.4816691166452754,-0.4601410904221168,15.5,-3.5,Overcast,-0.037227333342601816,0.24240681246276313,0.08266720339282589,0,2
Austria,Salzburg,Salzburg,"157,652",AT,0.784704200252408,0.794913272837982,0.8878240286871809,0.6193763045140467,,47.7981346,13.0464806,1.2263567673947684,1.913417300122175,-0.5819610160335226,-0.4734343559057985,-0.522823728274925,-0.5545745666055014,-0.6250176179610376,16.8,-7.2,Overcast,-0.33037171607627475,1.4338076627816467,0.16900009764056173,0,-2
Austria,Vienna,Vienna,"2,028,399",AT,0.8770006988386452,1.2211438364255927,0.979438856035054,1.3631022281509904,,48.2083537,16.3725042,-0.07259862983198659,-0.32482137335974703,-0.10376097794694127,0.3333124451965657,0.030704026352086983,-0.3784247026410717,-0.29065723476833644,16.4,-3.7,Overcast,-0.15937082614829884,-0.6272288447043055,0.10445773016763732,2,7
Belarus,Mogilev,Babruysk,"208,611",BY,-1.8861257275868315,-2.0054963072244774,-1.4388766727510454,-2.5786451671248107,,53.1449683,29.2281209,1.9376894849237063,1.98466097142664,-1.1691597453265434,-0.5151336486680727,-0.9609133611882753,-1.564310451741896,-1.2202405310855788,11.2,-7.6,Overcast,-0.3548004146374141,0.028621380075858918,-0.7597795223330036,4,-12
Belarus,Brest,Baranavichy,"172,150",BY,-1.733259651803376,-1.7979893223199825,-1.400967089020891,-2.653017759488505,,53.1322925,26.0184156,1.813979447092587,1.3078460940342285,-1.1873018876681019,-0.7346154100350931,-1.004839985079317,-1.3802540698750962,-1.256440966273765,13.5,-10.5,Overcast,-0.6479447973710871,-0.027180241259028154,-0.7597795223330036,4,-12
Belarus,Minsk,Barysaw,"136,409",BY,-1.476560015110404,-1.7157343012767596,-1.357529024330089,-2.1324096129426446,,54.2240665,28.5117849,2.339747107874845,2.231045334687913,-1.366652423453061,-0.7640963616385276,-1.2141451185601506,-1.6765646187046144,-1.3729405486066553,9.7,-11.7,Overcast,-0.6479447973710871,0.4105363728483968,-0.9911982854264936,4,-13
Belarus,Brest,Brest,"342,461",BY,-1.6784586057677977,-1.777425567059177,-1.437297106762289,-2.5786451671248107,,52.093751,23.6851851,1.2263567673947684,0.7444273934680892,-0.8014751048800995,-0.36615956242866193,-0.6297641400096676,-1.0020283181268372,-0.9319534290414783,15.7,-8.5,Overcast,-0.5990874002488082,-0.14313166221463716,-0.5692985803462116,4,-11
Belarus,Gomel,Gomel,"501,802",BY,-1.7217225894800965,-1.876505478770332,-1.4641497285711484,-1.1655659122146178,,52.4238936,31.0131698,1.9376894849237063,1.7335270300784027,-1.1235127151584743,-0.45437822749293394,-0.8675692854198077,-1.5842606190071786,-1.1625392313613794,11.1,-8.7,Overcast,-0.23265692183171707,0.06485619912448695,-0.6226526492752944,4,-5
Belarus,Grodno,Grodno,"358,717",BY,-2.0274547410470074,-2.11205394812138,-1.3693757692457624,-2.281154797670033,,53.6834599,23.8342648,1.5665593714303476,0.7450210907289597,-0.9789005901915158,-0.5784672519226013,-0.866523413422402,-1.119522851606243,-1.0526215463354318,14.7,-8.5,Overcast,-0.7456595916156448,-0.13660939478588413,-0.8735524750946277,4,-10
Belarus,City of Minsk,Minsk,"1,995,471",BY,-1.2371659719023511,-1.3904530816967409,-1.378853165178301,-0.570585173305063,,53.9024716,27.5618225,2.2624283342303952,1.9781303015570644,-1.3449226870471747,-0.7181374637016118,-1.2018561225906326,-1.647788570990175,-1.3808388253749868,10.6,-12.4,Overcast,-0.6968021944933658,0.20399790427121794,-0.917202700746167,4,-4
Belarus,Mogilev,Mogilev,"353,338",BY,-1.6582687467020583,-1.7456452180197497,-1.363847288285115,-2.3555273900337275,,53.9090245,30.3429838,2.107790786941496,2.4453700458621763,-1.3749068065441554,-0.6537950065899325,-1.1872139146269518,-1.8021495425957479,-1.3846782654707035,8.4,-10.5,Overcast,-0.6235160988099476,0.3054553976073756,-0.917202700746167,4,-12
Belarus,Brest,Pinsk,"124,613",BY,-1.9236211801374903,-1.9681076612957396,-1.4001773060265128,-2.7273903518521996,,52.1113862,26.1025274,1.4119218241414477,1.0145596471641836,-0.9439871747850115,-0.4902485868583282,-0.7446793257246284,-1.1893024689073923,-1.0266230519730069,14.0,-9.1,Overcast,-0.5013726060042506,-0.21125312202605737,-0.5692985803462116,4,-11
Belarus,Vitebsk,Vitebsk,"359,148",BY,-1.9495795703648695,-2.2167421567218457,-1.3883305611108396,-2.206782205306339,,55.1930197,30.2070437,2.880978523385993,2.610417884384186,-1.5030976676231755,-0.8480554215281579,-1.3495855422242002,-1.847566052407036,-1.4862588805745234,10.0,-12.5,Overcast,-0.6723734959322265,0.7620141176200868,-1.2071858621122191,4,-14
Bulgaria,Burgas,Burgas,"194,993",BG,-1.1160268175079147,-1.1792072321993725,-0.999757327876757,-0.27309480385028556,,42.4936616,27.4721276,-0.6756850642586946,-0.5201477721861534,0.7132479434829618,1.1633749798864383,0.4111399654084421,0.3511814144892595,0.7799980604943832,21.4,-1.8,Overcast,0.8422058148584172,-1.238147893864171,0.8853102097604346,5,4
Bulgaria,Pleven,Pleven,"110,843",BG,-1.5025184053377831,-1.5175744778544493,-1.0495136565225847,-0.7193303580324517,,43.4809895,24.6060665,-0.39733747913867556,0.153104921641035,0.3716098192921634,1.1964429674264145,0.3324380976036573,-0.2722383284871487,0.27264347641753167,21.2,-3.5,Overcast,1.1597788961532294,-1.2852531586273874,0.762316722722349,5,3
Bulgaria,Plovdiv,Plovdiv,"321,824",BG,-1.1910177226092324,-1.201640419756615,-0.9500009992309293,-0.4218399885776743,,42.1418541,24.7499297,-0.6911488189875845,-0.32482137335974687,0.906803018368144,1.7736194685902447,0.7667364445264093,0.21474801254603745,0.7751713358026252,21.0,-2.3,Overcast,1.4284945803257627,-1.3997551868210514,0.9281876813270048,5,4
Bulgaria,Ruse,Ruse,"139,226",BG,-1.27466142445301,-1.3119369252463915,-1.0297690816631293,-0.7193303580324517,,43.8480413,25.9542057,-0.3664099696808957,-0.0641882758375813,0.6258331515253235,1.4700665524605792,0.597697382945699,-0.0901126079686019,0.5211100997546276,22.3,-1.6,Overcast,0.9643493076641138,-1.2316256264354182,0.717293803579846,5,2
Bulgaria,Sliven,Sliven,"111,392",BG,-1.6467316843787787,-1.6596513323836528,-0.722543496850003,-1.4630562816693953,,42.64169,26.2634283,-0.5519750264275749,-0.2428911513596126,0.5677316281420683,1.2332100857759458,0.3749266474982662,0.09330022011544692,0.5024613907182893,20.9,-1.4,Overcast,0.5979188292470226,-1.115674205479809,0.8680082127143454,5,-1
Bulgaria,Sofia City,Sofia,"1,280,334",BG,-0.4497614683385148,-0.43891204281036456,-0.974484272056654,0.0987681579681862,,42.6977028,23.3217359,-0.04167112037420697,0.03317807494518653,-0.06954758089445089,0.6249833047864454,-0.1965116650843201,-0.47100451110254377,-0.1462942871693872,19.6,-5.6,Overcast,0.8910632119806955,-1.0591478877639495,0.8593239644852578,5,5
Bulgaria,Stara Zagora,Stara Zagora,"142,746",BG,-1.4246432346556455,-1.4502749151827214,-0.8425905119954918,-0.49621258094136866,,42.4248111,25.6257479,-0.6138300453431348,-0.3105726390988539,0.49772979274055446,1.2807383119350955,0.3605459075339375,-0.08229802632091085,0.41426396680525257,20.3,-3.7,Overcast,0.8422058148584172,-1.272933320150854,0.8939289554184988,5,3
Bulgaria,Varna,Varna,"319,900",BG,-0.8824013054615018,-0.8221456635799267,-0.9255177264052046,-0.049977026759202514,,43.2073873,27.9166653,-0.6138300453431348,-0.4103137789251041,0.5923489402582666,0.9581292673925622,0.27596100974374477,0.31881985284234965,0.6781980488136665,20.3,-1.0,Overcast,0.5734901306858835,-1.1939414146248453,0.7979112878962445,5,4
Albania,Tirana,Tirana,"418,495",AL,-0.4468772027576949,-0.34544042798852015,-1.1782482846062339,-0.34746739621397993,,41.3281482,19.8184435,-1.1086701966676131,-0.8828967985780511,1.3621941250863998,1.5644504355407793,1.2197297534027913,1.0685600097473211,1.2937151453012803,23.7,-1.8,Overcast,2.74764430262729,-0.8011559761377193,1.0301453803011789,1,3
Albania,Durrës,Durrës,"113,249",AL,-1.0583415058915164,-0.9978722994449943,-1.1616628417242914,-1.4630562816693953,,41.313255,19.4462348,-1.093206441938723,-0.8781472204910868,1.5193482455627958,1.4761196756034882,1.3730807350224143,1.3212008376044464,1.541084785753887,22.7,2.4,Overcast,2.576643412699316,-0.6192571845136072,1.0301453803011789,1,-1
France,Provence-Alpes-Côte d'Azur,Aix-en-Provence,"147,478",FR,0.5222360323977958,0.4135490843648567,-0.1009842802743464,0.5450037121503524,PAC,43.5298424,5.4474738,-1.0622789324809432,-0.8158090080996806,0.7446612671193912,0.9360465774082414,0.6807134727397843,0.5658525691640734,0.6382678718182123,18.3,-2.3,Overcast,1.0864928004698111,-1.4012045795829964,0.7546436180630972,5,4
France,Hauts-de-France,Amiens,"133,625",FR,-0.4930254520508135,-0.33422383420989876,1.1223895780175113,-0.27309480385028556,HDF,49.8941708,2.2956951,-0.6602213095298046,-0.6074212695341222,-0.18373807489316815,-0.7444797588605765,-0.18749101910669572,0.22274646670308612,-0.07093156300489069,17.0,-1.5,Overcast,-0.7212308930545054,0.24313150884373602,-0.1667603315106308,0,-2
France,Pays de la Loire,Angers,"157,175",FR,0.5453101570443551,0.44159056881141,0.5916554057953496,0.470631119786658,PDL,47.4739884,-0.5515588,-0.9694964041076036,-0.7689069244909081,0.20701800380435756,-0.2544009740308488,0.21059400990588234,0.5054504498401535,0.24774196493959758,18.1,-0.5,Overcast,-0.3792291131985535,-0.06413975668862858,0.2113558312605489,5,0
France,Auvergne-Rhône-Alpes,Annecy,"131,715",FR,0.38667555009925997,0.4640237563686527,0.09014320436518203,0.39625852742296364,ARA,45.8992348,6.1288847,-0.14991740347643637,-0.0071933387940099364,-0.2746821260523004,0.01597185968582799,-0.40372505457034136,-0.2720544559777912,-0.3853268576998661,15.5,-3.0,Overcast,-0.52580130456539,0.2619736147490222,0.4451173442264865,0,0
France,Île-de-France,Argenteuil,"107,221",FR,1.1250475387891576,0.8659517001025837,0.7819931074404999,0.17314075033188056,IDF,48.9479069,2.2481797,-0.7530038379031443,-0.6608540230124705,0.014658793607284903,-0.3542775058888751,0.07018569425415512,0.2734952792857404,0.01660767117745076,17.1,-3.8,Overcast,-0.6235160988099476,0.2561760437012421,-0.017163959091758402,2,-4
France,Bourgogne-Franche-Comté,Besançon,"119,198",FR,-0.6401229966726291,-0.414609422956685,-0.0393812067128455,0.39625852742296364,BFC,47.2380222,6.0243622,-0.3664099696808957,-0.37884782409896584,-0.0970816361523799,-0.16438879099830822,-0.08211941536806226,0.005133351878553154,-0.14146756247762907,17.8,-6.5,Overcast,-0.2082282232705776,1.2308926761093315,0.25318686530469625,0,0
France,Nouvelle-Aquitaine,Bordeaux,"261,804",FR,0.1732398971185864,0.3761604384361189,0.3207598387236213,0.6937488968777411,NAQ,44.841225,-0.5800364,-0.9849601588364935,-0.8472749629258189,0.6277873694302826,0.20664523868750956,0.7105208246658489,0.7717897796444092,0.6417782170485818,20.1,-0.6,Overcast,-0.037227333342601816,0.21776713550969637,0.5893161112039297,5,2
France,Île-de-France,Boulogne-Billancourt,"119,808",FR,2.0566653213939894,1.499689248594689,1.012609741798939,1.2143570434236015,IDF,48.8356649,2.240206,-0.7375400831742543,-0.6519485640994124,0.08113136980730432,-0.2567549663642028,0.13215361010044896,0.31532627516455825,0.06926284963299364,17.0,-2.2,Overcast,-0.42808651032083234,0.13152826617396188,0.0052760313090417475,2,-1
France,Brittany,Brest,"139,619",FR,-0.7843362757136247,-0.5174281992607139,0.1880762956680809,0.32188593505926927,BRE,48.3905283,-4.4860088,-0.7684675926320341,-0.817590099882292,0.015329644529882029,-1.2158386998964867,-0.03178682549290971,0.899121492374438,0.20133958892564943,16.0,1.3,Light Drizzle,-0.770088290176784,2.0606700323229092,0.0717184067506922,0,-1
France,Normandy,Caen,"108,200",FR,-0.16710344141816333,-0.13793344308402547,0.23862240730828677,-0.6449577656687574,NOR,49.1813403,-0.3635615,-0.7066125737164745,-0.5456767544035864,-0.06768086528374483,-0.8750702859252215,-0.09244740134244382,0.47869699972864593,0.10820574203240754,18.1,0.3,Overcast,-0.5990874002488082,0.2866132917020895,-0.05110581956352297,0,-4
France,Auvergne-Rhône-Alpes,Clermont-Ferrand,"147,327",FR,-0.14691358235242394,-0.012681479222753932,0.27969112301595406,0.2475133426955749,ARA,45.7774551,3.0819427,-0.18084491293421648,-0.36756757614242547,0.029913360238531538,-0.1482471292838786,-0.04995885144783358,0.1788009369666575,0.08615638605414769,18.9,-1.0,Overcast,-0.15937082614829884,0.26487240027291276,0.45492347206574385,0,1
France,Bourgogne-Franche-Comté,Dijon,"159,346",FR,-0.19017756606472264,0.007882276038051843,-0.010159235920851484,0.32188593505926927,BFC,47.3215806,5.0414701,-0.6138300453431348,-0.5872355626645238,-0.09976503984277126,-0.14735037029974374,-0.08996345534860523,-0.004519954862712631,-0.15013372726510443,15.1,-3.6,Overcast,-0.5013726060042506,0.06485619912448695,0.23233585401258347,0,1
France,Auvergne-Rhône-Alpes,Grenoble,"157,477",FR,-0.04019575586208717,0.08639843248840116,0.3973687891783083,0.6937488968777411,ARA,45.1875602,5.7357819,0.4840965404080513,1.0840222266860362,0.46054131768350154,0.5549240091509053,0.46330283127905597,0.3563298447512683,0.3751016778289432,20.7,-0.9,Overcast,-0.3792291131985535,0.8083946860023307,0.5419281649581766,0,2
France,Normandy,Le Havre,"166,058",FR,-0.6170488720260697,-0.4164788552531219,-0.12388798711131468,-0.6449577656687574,NOR,49.4938975,0.1079732,-0.5519750264275749,-0.4874944228382739,-0.014508637810012983,-0.9000674426079818,-0.05322720143972648,0.5505911508874056,0.21395489209729057,18.0,0.9,Overcast,-0.6235160988099476,1.4627955180205494,-0.1084400003829284,0,-5
France,Hauts-de-France,Lille,"236,710",FR,0.1501657724720271,0.32194690183944913,0.5853371418403239,0.6193763045140467,HDF,50.6365654,3.0635282,-0.6602213095298046,-0.5148044968383185,-0.24636055014610456,-0.7699252950354042,-0.24880526495460903,0.1504845705256112,-0.14388092482350812,17.2,-0.3,Overcast,-0.770088290176784,0.36488050084712564,-0.29870088609231726,0,0
France,Nouvelle-Aquitaine,Limoges,"129,760",FR,-0.7035768394506672,-0.4276954490317432,-0.0038409719658257513,0.0987681579681862,NAQ,45.8354243,1.2644847,-0.7220763284453644,-0.6181078202297919,0.06753934676684384,-0.20149219396688792,0.0031191524205096428,0.29436480909781,0.09734561147595065,19.8,-3.0,Overcast,0.3047744465133497,1.2801720300154649,0.4451173442264865,5,0
France,Auvergne-Rhône-Alpes,Lyon,"522,250",FR,0.1328601789871076,0.40046305828979845,0.5908656228009714,1.0656118586962129,ARA,45.7578137,4.8320114,-0.7066125737164745,-0.7404094559691223,0.35279682602800727,0.5578384758493448,0.3665596715190204,0.18643164610499138,0.2509232153046195,17.1,-3.0,Overcast,-0.28151431895399587,-0.4714191227952056,0.46470204952941563,5,6
France,Pays de la Loire,Le Mans,"145,004",FR,-0.5680163571521313,-0.2519688131666757,0.48819383353180323,-0.6449577656687574,PDL,48.0073849,0.1967849,-0.8767138757342638,-0.7249733271864884,0.028600825824752305,-0.38073189592085444,0.036456322337819126,0.3287489683476517,0.057305736192047325,18.1,-3.1,Overcast,-0.52580130456539,0.04094121855239256,0.13688286083767187,5,-2
France,Provence-Alpes-Côte d'Azur,Marseille,"873,076",FR,-0.08345973957438586,0.475240350147274,0.08935342137080382,0.7681214892414354,PAC,43.2961743,5.3699525,-1.0622789324809432,-0.8532119355345243,1.290471411231267,1.0578937043775716,1.220644891400522,1.2783585429241633,1.2685942372464476,17.9,1.9,Overcast,1.4529232788869024,-1.4881681452997033,0.7903179883102942,1,9
France,Grand Est,Metz,"120,874",FR,-0.12095519212504473,0.08826786478483806,0.49530188048120716,0.32188593505926927,GES,49.1196964,6.1763552,-0.32001870549422584,-0.5456767544035865,-0.26569855717577306,-0.40965237315920466,-0.23638553498541603,-0.08542385897998706,-0.2981167183828718,15.9,-3.4,Overcast,-0.5013726060042506,0.5460545960902649,-0.03975330228902365,0,0
France,Occitania,Montpellier,"302,454",FR,0.0636378050474297,0.2135198286461096,0.31365179177421737,0.6193763045140467,OCC,43.6112422,3.8767337,-1.0313514230231633,-0.8597426054041003,1.0058556154612843,1.0925310201397826,0.9783947900014062,0.8115062416656166,0.9245804046702296,20.8,0.3,Overcast,0.5490614321247442,-0.9852288569047485,0.7456664863707795,5,5
France,Île-de-France,Montreuil,"111,455",FR,1.0587094304302997,0.8939931845491371,0.5371603791832527,0.17314075033188056,IDF,50.4638918,1.7631125,-0.6292938000720247,-0.40853268714249247,-0.3554467436467953,-1.1036317320066062,-0.38633743261347053,0.19259137516846556,-0.16241993557139844,16.6,-1.5,Overcast,-0.6235160988099476,1.558455440308927,-0.2622063179041277,0,-6
France,Grand Est,Mulhouse,"106,341",FR,-0.4641827962426144,-0.14728060456620992,-0.049648385639762316,0.470631119786658,GES,47.7467233,7.3389937,-0.38187372440978556,-0.28801214318577356,-0.14768712966138955,-0.07392822847369906,-0.07218363139270657,-0.12330159590761999,-0.2754091726739187,18.9,-5.9,Overcast,-0.4769439074431112,0.24458090160568083,0.16900009764056173,0,2
France,Grand Est,Nancy,"104,260",FR,-0.2911268613934196,-0.0014648854441325994,0.1406893160053879,0.17314075033188056,GES,48.6937223,6.1834097,-0.24269993184977606,-0.4316868803164434,-0.2200223595762862,-0.3370148954442769,-0.18749101910669508,-0.07080599448607056,-0.25588287732998743,16.2,-3.5,Overcast,-0.4525152088819718,0.6417145183786424,0.027568879300076808,0,0
France,Pays de la Loire,Nantes,"323,204",FR,-0.020005896796347778,0.1780006150138087,0.12568343911220178,0.470631119786658,PDL,47.2186371,-1.5541362,-1.0158876682942735,-0.8609299999258414,0.25164417387282256,-0.3909325293653884,0.2696857777593098,0.6416999792740185,0.33703637173712275,17.7,-0.7,Overcast,-0.25708562039285654,0.42503030046784757,0.25318686530469625,5,0
France,Provence-Alpes-Côte d'Azur,Nice,"348,085",FR,0.5972269374991136,0.7575246269092443,0.08303515741577808,0.470631119786658,PAC,43.7009358,7.2683912,-1.0468151777520531,-0.8692417615780287,1.259495599066098,1.1009381356160468,1.1513558715723886,1.2034304953610049,1.2575147101130941,20.5,4.0,Overcast,0.47577533644132597,-1.3997551868210514,0.7366650548715716,1,4
France,Occitania,Nîmes,"148,104",FR,-0.3863076255604767,-0.25944654235242326,0.07276797848886127,0.6193763045140467,OCC,43.8374249,4.3600687,-0.9849601588364935,-0.8217459807083858,1.078103343081928,1.2276053421251052,1.0465072038324574,0.8606921379187322,0.9482752349752241,20.0,-0.6,Overcast,0.6223475278081625,-1.117123598241754,0.7185918206725695,5,6
France,Centre-Val de Loire,Orléans,"116,617",FR,-0.39207615672211654,-0.2687937038346077,0.8270107381200582,0.470631119786658,CVL,47.9027336,1.9086066,-0.8612501210053738,-0.7546581902300152,-0.022150504841344378,-0.34127450061891745,-0.012307459541225477,0.23920305629057712,-0.024419488702494014,18.7,-4.2,Overcast,-0.403657811759693,0.2380586341769278,0.14762200302222692,0,1
France,Île-de-France,Paris,"2,133,111",FR,2.0537810558131695,1.9408752705537948,1.1350261059275626,1.511847412878379,IDF,48.8534951,2.3483915,-0.7375400831742543,-0.6519485640994124,0.07299365644187783,-0.263704848491248,0.12274076212379612,0.3087068648276904,0.06125487457621361,17.0,-2.2,Overcast,-0.42808651032083234,0.13152826617396188,0.0052760313090417475,2,1
France,Occitania,Perpignan,"119,656",FR,-0.36900203207555726,-0.19588584427356903,-0.13494494903260973,-0.049977026759202514,OCC,42.6985304,2.8953121,-1.0777426872098332,-0.8775535232302163,1.3306932991557199,1.223009452331412,1.3285004411329926,1.1919384635261647,1.2708979013038781,22.2,0.9,Overcast,0.25591704939107124,-1.9389292942646341,0.8605683833118789,1,4
France,Grand Est,Reims,"179,380",FR,-0.2017146283880023,0.01349057292736251,-0.07966013942613455,0.17314075033188056,GES,49.2577886,4.031926,-0.6756850642586946,-0.6709468764472697,-0.16127915270185003,-0.5349744411920575,-0.10774327930450323,0.11159553479651199,-0.1257807072294151,16.3,-2.4,Overcast,-0.5013726060042506,0.21341895722386103,-0.062494425374056736,0,0
France,Brittany,Rennes,"225,081",FR,-0.2622842055852205,-0.018289776112064598,0.3823629122851222,0.6193763045140467,BRE,48.1113387,-1.6800198,-0.845786366276484,-0.7748438970996135,0.025684082683023197,-0.655812714304237,0.05685082628723209,0.4829260674438669,0.11445854447400226,17.4,-1.5,Overcast,-0.52580130456539,0.37212746465685104,0.11530063050505213,0,2
France,Normandy,Rouen,"114,083",FR,-0.46706706182343427,-0.37348191243507345,0.3010152638641659,0.6193763045140467,NOR,49.4404591,1.0939658,-0.7220763284453644,-0.5973284160993231,-0.12531570976432332,-0.7413411024161023,-0.08591070135865739,0.29684708797413556,-0.027929833932863576,17.5,-2.4,Overcast,-0.6968021944933658,0.7554918501913337,-0.09689533838091854,0,1
France,Île-de-France,Saint-Denis,"113,942",FR,1.0702464927535793,0.8472573771382149,0.7330265617890503,0.0987681579681862,IDF,48.935773,2.3580232,-0.7530038379031443,-0.6608540230124705,0.021425637696096997,-0.3480001929999289,0.07802973423469871,0.2788275820571059,0.022970171907495056,17.1,-3.8,Overcast,-0.6235160988099476,0.2561760437012421,-0.017163959091758402,0,-4
France,Auvergne-Rhône-Alpes,Saint-Étienne,"172,718",FR,-0.6487757934150888,-0.448259204292549,0.027750347809302914,0.6937488968777411,ARA,45.4401467,4.3873058,-0.01074361091642686,-0.029753834707090233,-0.2227932655609294,-0.18501424763340993,-0.44176864847597663,-0.10408691867976777,-0.16198114241760117,16.7,-3.9,Overcast,-0.18379952470943828,0.1518197648411938,0.5035340944452772,0,5
France,Grand Est,Strasbourg,"291,313",FR,0.04344794598169031,0.2639945006499056,0.3839424782738786,0.470631119786658,GES,48.584614,7.7507127,-0.2890911960364459,-0.5254910475339882,-0.18423392122726265,-0.1727959064745714,-0.056757019430972735,-0.15345668744224078,-0.293070597114215,17.5,-3.3,Overcast,-0.4769439074431112,0.3866213922763024,0.03866018087395532,0,1
France,Provence-Alpes-Côte d'Azur,Toulon,"180,452",FR,-0.14691358235242394,-0.0014648854441325994,-0.06702361151608309,0.39625852742296364,PAC,43.1257311,5.9304919,-1.1086701966676131,-0.879334615012828,1.3453353497272023,1.2892575222843798,1.195936165461809,1.2943554512382593,1.2501649247870084,21.1,2.8,Overcast,1.721638963059435,-1.1888685399580372,0.8080167569952126,1,6
France,Occitania,Toulouse,"504,078",FR,0.07805913295152926,0.33316349561807046,0.4668696926835914,0.9912392663325185,OCC,43.6044638,1.4442433,-0.814858856818704,-0.8086846409692341,0.6620882687770225,0.5563812425001244,0.5982203189444019,0.6152223379265469,0.7095717593100924,19.0,-2.0,Overcast,-0.037227333342601816,-0.2800992782184505,0.7456664863707795,5,5
France,Centre-Val de Loire,Tours,"137,658",FR,-0.6545443245767286,-0.36039588636001524,0.12963235408409288,-0.7193303580324517,CVL,47.3900474,0.6889268,-0.9540326493787136,-0.8092783382301045,0.1798631251548539,-0.13457155477582203,0.17895638198435845,0.4126867688693241,0.165577946891259,19.0,-1.3,Overcast,-0.25708562039285654,0.03949182579044728,0.2218615970595274,5,-2
France,Auvergne-Rhône-Alpes,Villeurbanne,"156,928",FR,0.1299759134062877,0.2976442819857696,0.5687516989583813,-0.049977026759202514,ARA,45.7733573,4.8868454,-0.6756850642586946,-0.7374409696647697,0.30618727062316764,0.5005579957377274,0.32956194961079155,0.1488297179413943,0.20759239136724467,17.0,-1.5,Overcast,-0.3792291131985535,-0.3801073787926634,0.45492347206574385,5,0
Denmark,Capital,Copenhagen,"659,350",DK,1.9211048390954537,2.0979075834544934,1.813449698098451,1.5862200052420734,,55.6867243,12.5700724,0.3294589931191517,-0.1265264882289877,-0.9148197433677142,-1.266841867119159,-1.0685074429213945,-0.5047451165696345,-0.7020258164522705,12.4,-7.1,Overcast,-0.6235160988099476,0.07500194845810242,-1.31624236971494,2,2
Denmark,Central,Aarhus,"343,533",DK,1.015445446718001,1.1388888153823695,1.4817408404595998,1.0656118586962129,,56.1496278,10.2134046,0.36038650257693183,0.1317318202496958,-0.9161031103500761,-1.4321818048190331,-1.0550418409547953,-0.3797118102065736,-0.70553616168264,11.5,-6.8,Overcast,-0.6479447973710871,0.48228131456467993,-1.4162160804721822,2,0
Denmark,North Jutland,Aalborg,"204,901",DK,0.3261059729020418,0.7238748455733802,0.9691716771081372,0.6937488968777411,,57.0462626,9.9215263,0.49956029513694133,0.33655737525003043,-1.0029053862479513,-1.4751141411844915,-1.1219776487887656,-0.4862659293792116,-0.8066779836326635,10.7,-7.0,Overcast,-0.8189456872990629,0.6830222120940781,-1.6430980320565398,0,0
Denmark,Southern,Odense,"199,682",DK,0.19054549060350587,0.60983947549073,1.0884289092592478,1.0656118586962129,,55.3997225,10.3852104,0.19028520055914222,-0.15324286496816178,-0.8628433805820924,-1.3599927065961728,-1.024711553030028,-0.3408227744774746,-0.6477251636699918,12.2,-6.3,Overcast,-0.6968021944933658,0.2155930463667787,-1.251145469669004,0,3
Denmark,Southern,Esbjerg,"105,229",DK,0.0030682278502115246,0.33316349561807046,2.2975866736522974,0.9168666739688242,,55.4664892,8.4520751,0.1593576911013626,-0.00541224701139832,-0.8631933897590993,-1.5048192825339608,-1.047459268973603,-0.22866054376943484,-0.6220557641729133,10.4,-7.4,Overcast,-0.8433743858602023,1.4171396460192782,-1.2673074417080976,0,0
Denmark,Capital,Frederiksberg,"104,899",DK,2.4143142534156588,2.1278185001974834,2.2107105442706936,0.39625852742296364,,55.678016,12.5326186,0.3294589931191517,-0.1265264882289877,-0.9189323511975539,-1.2711014722937997,-1.0732138669097204,-0.5076870767193535,-0.7058652565479872,12.4,-7.1,Overcast,-0.6235160988099476,0.07500194845810242,-1.31624236971494,2,-5
Finland,Uusimaa,Helsinki,"674,963",FI,0.5395416258827154,0.8752988615847682,0.8980912076140977,1.4374748205146846,,60.1698897,24.9384719,2.973761051759332,2.6341657748190075,-1.8232977297222606,-1.571964111471062,-2.7273911648066487,-1.5274440136157286,-1.207954322779285,6.6,-9.0,Overcast,-0.6968021944933658,0.49967402770802133,-2.542989342361751,3,0
Finland,Uusimaa,Espoo,"314,152",FI,0.45589792403893786,0.8566045386203993,1.1737254726520954,1.4374748205146846,,60.2049651,24.6559808,2.7727322402837635,3.2872327617765964,-1.8033763740642468,-1.2261514282140378,-2.2464207799996623,-1.8255932875388217,-1.519278065397687,7.0,-11.1,Overcast,-0.6479447973710871,0.6330181618069717,-2.566248389392757,3,0
Finland,Pirkanmaa,Tampere,"255,066",FI,-0.32285378278243865,-0.10615309404459837,0.9067788205522581,-0.27309480385028556,,61.4977929,23.7616372,3.0510798254037828,2.789714457167087,-2.0379408575221483,-1.303160605976623,-2.458602061473361,-2.089266465957394,-1.8334539635157636,6.7,-13.3,Overcast,-0.8189456872990629,0.5098197770416367,-3.0128375650950914,3,-7
Finland,Uusimaa,Vantaa,"247,447",FI,0.5453101570443551,0.7519163300199335,0.13753018402787504,0.17314075033188056,,60.292997,25.0435254,2.880978523385993,3.2949508261679137,-1.8713948241293834,-1.2444228925157865,-2.2793657479179443,-1.9322393429661382,-1.6023196697536175,6.9,-11.2,Overcast,-0.5990874002488082,0.614900752282658,-2.5896583783871554,3,-6
Finland,North Ostrobothnia,Oulu,"214,651",FI,-0.178640503741443,0.33877179250738115,0.3373452816055639,0.470631119786658,,65.0117869,25.4701983,3.4531374483549224,2.432308706123025,-2.693245539174557,-1.5594094856931735,-3.5817378526875006,-2.678945603466711,-2.4012523045280423,6.2,-16.5,Overcast,-0.7456595916156448,0.2460302943676261,-4.664767042715294,3,-4
Finland,Southwest Finland,Turku,"201,889",FI,-0.22767301861538153,0.12378707841713894,0.611399980654805,0.7681214892414354,,60.4515944,22.2669983,2.2160370700437255,1.9104488138178233,-1.803784718104089,-1.2823109595954865,-2.2007946141128345,-1.7642718056681148,-1.577308459987234,7.2,-11.5,Overcast,-0.6479447973710871,0.3902448741811648,-2.63694204638906,3,0
Finland,Central Finland,Jyväskylä,"147,821",FI,-0.29977965813587937,0.039662625077478954,0.7432937407159672,0.6193763045140467,,62.241672,25.7495806,3.468601203083811,3.2100521178634276,-2.2870890566886986,-1.3330899370721248,-2.776808616684072,-2.4036884569586205,-2.099033519850912,6.7,-14.9,Overcast,-0.8678030844213419,0.5888116825676458,-3.3157770887784954,3,-3
Finland,Northern Savonia,Kuopio,"124,011",FI,-0.15268211351406377,0.08452900019196428,0.3033846128473005,-0.7193303580324517,,62.8924641,27.6783597,3.6541662598304905,3.1578067589068204,-2.3544949906940715,-1.2419568053094157,-2.9957880661409084,-2.5398460501378066,-2.0955231746205425,5.5,-16.4,Overcast,-0.7945169887379236,0.7221558166665962,-3.584199401330485,3,-11
Finland,Päijänne Tavastia,Lahti,"120,693",FI,-0.01135310005388804,0.26025563605703184,0.29390721691476196,0.5450037121503524,,60.9826257,25.66137,3.0820073348615638,2.8544274586019758,-2.1117344590079092,-1.318853888198984,-2.4423910455135713,-2.2400419236304963,-1.9293302676202326,6.4,-13.4,Overcast,-0.8922317829824812,0.48807888561246004,-2.8325342981732917,3,-4
Croatia,Grad Zagreb,Zagreb,"768,624",HR,-0.0892282707360257,-0.07811160959804504,-0.2723671900544194,0.2475133426955749,,45.8130967,15.9772795,-0.25816368657866595,-0.1384004334463985,0.1843257421617,0.6025643301830729,0.32642433361857304,-0.16430516549433014,0.025712629118721277,17.3,-2.4,Overcast,-0.23265692183171707,-0.49678349612924527,0.45492347206574385,5,2
Croatia,Split-Dalmatia,Split,"159,008",HR,0.3578328942910608,0.2696027975392163,-0.5724847279181418,-0.4218399885776743,,43.5116383,16.4399659,-0.9849601588364935,-0.7926548149257295,1.3005925099330697,1.3988863080948706,1.1687434935292589,1.096324758660295,1.2337101815196512,20.3,1.2,Overcast,1.5262093745703207,-0.4264879471749069,0.7635978513048047,1,-1
Croatia,Primorje-Gorski Kotar,Rijeka,"106,579",HR,-0.29401112697423953,-0.3043129174669086,-0.627769537524617,-0.27309480385028556,,45.3267976,14.442208,-0.11898989401865642,0.973000838903246,0.7827539325503807,0.9878344087420325,0.7443809305818606,0.6106255251926109,0.6240070943198349,18.9,-1.9,Overcast,-0.23265692183171707,1.6193299363106217,0.5227854069755017,5,-4
Estonia,Harju,Tallinn,"437,817",EE,0.0636378050474297,0.22847528701760472,-0.2794752370038234,0.7681214892414354,,59.4372419,24.7572802,2.6954134666393137,2.592013269297199,-1.6377928659082521,-1.2499155412936125,-1.9207623868074355,-1.6195641408038075,-1.392357145662137,7.2,-14.0,Overcast,-0.6479447973710871,0.8033218113355225,-2.3183066677709716,3,-2
Germany,North Rhine-Westphalia,Aachen,"245,900",DE,0.25111506780072407,0.35372725087887624,0.8601816238839433,0.9912392663325185,NW,50.776351,6.083862,0.020183898541353086,0.04327092837998568,-0.37110965431788456,-0.7673471129560153,-0.34110346872567027,-0.07071405823139186,-0.27420249150097914,16.5,-2.3,Overcast,-0.52580130456539,1.241038425442947,-0.3232494265025682,0,1
Germany,Bavaria,Augsburg,"286,400",DE,0.8885377611619248,0.8883848876598264,1.1239691440062676,0.9912392663325185,BY,48.3690341,10.8979522,0.2830677289324819,0.13410660929317778,-0.671621700210293,-0.5932637751608264,-0.6023100000777654,-0.5491503275794568,-0.7847383259428538,16.9,-3.9,Overcast,-0.33037171607627475,0.5438805069473471,0.0717184067506922,2,1
Germany,North Rhine-Westphalia,Bergisch Gladbach,"111,400",DE,0.5135832356553361,0.4621543240722158,0.9383701403273867,0.32188593505926927,NW,50.9929303,7.1277379,0.06657516272802293,-0.11821472657680043,-0.32598763791532565,-0.644827416748584,-0.228280027005521,-0.08900937291245738,-0.29723913207527886,16.2,-2.4,Overcast,-0.42808651032083234,1.4685930890683296,-0.3604082664630335,0,-3
Germany,Berlin,Berlin,"3,520,000",DE,1.246186693183594,1.3893927431049127,0.8822955477265334,1.4374748205146846,BB,52.5173885,13.3951309,0.22121271001692233,-0.16689790196818435,-0.44093648513089245,-0.4153692116830644,-0.32463098476652874,-0.40297168264029015,-0.4986451896677329,16.5,-7.9,Overcast,-0.403657811759693,-0.15762558983408845,-0.6460025099722515,2,4
Germany,North Rhine-Westphalia,Bielefeld,"333,000",DE,0.04633221156251022,0.2471696099819736,0.8696590198164819,0.9912392663325185,NW,52.0191005,8.531007,0.22121271001692233,0.11510829694532071,-0.49477956352722313,-0.824291308448582,-0.4156218485408322,-0.20328613747810792,-0.46288354763334355,16.6,-5.7,Overcast,-0.5746587016876687,1.2743744589676849,-0.5393716200733328,0,1
Germany,North Rhine-Westphalia,Bochum,"364,700",DE,-0.19594609722636247,0.15182856286369228,0.3515613755043718,0.17314075033188056,NW,51.4818111,7.2196635,-0.01074361091642686,-0.28266886783793876,-0.334971206791853,-0.6776712145425253,-0.27521353288910555,-0.05490102242665192,-0.30020098586340316,16.3,-4.1,Overcast,-0.5013726060042506,1.1700181801076366,-0.44871870557819354,0,-1
Germany,North Rhine-Westphalia,Bonn,"318,800",DE,0.9375702760358633,0.8939931845491371,1.3569551273478415,1.3631022281509904,NW,50.7352621,7.1024635,0.004720143812462866,-0.2434848486204833,-0.15185807235406276,-0.44518644790554945,-0.11009649129866675,0.061766084760645296,-0.1167854475765936,17.0,-2.1,Overcast,-0.3792291131985535,0.789552580097044,-0.31095396981301515,2,2
Germany,North Rhine-Westphalia,Bottrop,"117,100",DE,-0.2680527367468603,-0.008942614629880155,0.3649876864088014,0.0987681579681862,NW,51.521581,6.929204,-0.16538115820532626,-0.34678817201195683,-0.27024867647687106,-0.6287978499071724,-0.18304606311772137,-0.001669930967672286,-0.24546153992732783,16.3,-4.1,Overcast,-0.5013726060042506,1.083779310771902,-0.44871870557819354,0,-1
Germany,Lower Saxony,Braunschweig,"251,400",DE,-0.24209434651948109,0.10322332315633317,1.5757250167906076,0.0987681579681862,NI,52.2646577,10.5236066,0.20574895528803244,-0.07368743201150993,-0.45333264348324287,-0.6734116093678836,-0.39614248258914986,-0.23270573897529864,-0.43589776867487756,17.0,-5.6,Overcast,-0.5013726060042506,0.4098116764674239,-0.5922717073544866,0,0
Germany,Bremen,Bremen,"557,500",DE,0.3289902384828617,0.5724508295619922,0.7661974475529355,1.0656118586962129,HB,53.0758196,8.8071646,0.020183898541353086,-0.2731697116640103,-0.5593270892537002,-0.9831297435134784,-0.5229544622746013,-0.1703729583031256,-0.4994130776868768,16.0,-5.0,Overcast,-0.6723734959322265,0.6786740338082428,-0.7560522613465152,0,2
Germany,Bremen,Bremerhaven,"114,000",DE,0.8625793709345456,0.593014584822798,0.640621951446799,-0.27309480385028556,HB,53.5505392,8.5851945,0.1438939363724724,-0.023816862098385023,-0.5851986009208431,-1.1071066730701289,-0.581654028129001,-0.13277103013952885,-0.4710012209785726,15.2,-4.1,Overcast,-0.4769439074431112,1.2881436902061627,-0.8409620277240742,0,-7
Germany,Saxony,Chemnitz,"248,600",DE,-0.507446779954913,-0.17532208901276325,0.3728855163525836,0.8424940816051297,SN,50.8323531,12.918914,0.9480091822747494,0.8548550839900089,-0.6079783648577514,-0.6384380089866221,-0.6084544980625247,-0.4393784394930638,-0.6269921871531211,17.6,-7.4,Overcast,-0.3792291131985535,0.8605728254323548,-0.3355913879949705,0,3
Germany,North Rhine-Westphalia,Cologne,"1,060,600",DE,0.882769230000285,0.9145569398099429,0.7669872305473138,1.4374748205146846,NW,50.938361,6.959974,-0.18084491293421648,-0.2909806294901263,-0.18933822172528972,-0.4998887459377801,-0.10630520530807099,0.026002881690622936,-0.16472359962882846,17.2,-2.0,Overcast,-0.403657811759693,0.7888278837160716,-0.34797773058533804,2,2
Germany,Hesse,Darmstadt,"155,400",DE,0.6751021081812513,0.5874062879334874,1.0055016948495352,1.2143570434236015,HE,49.872775,8.651177,-0.13445364874754664,-0.4269373022294791,-0.24965646989625903,-0.26348065874521426,-0.12094741327175182,-0.19878126099885035,-0.34243482691628746,16.1,-3.0,Overcast,-0.3792291131985535,0.2750181496065282,-0.1667603315106308,0,3
Germany,North Rhine-Westphalia,Dortmund,"586,200",DE,-0.06615414608946639,0.28642768820714826,0.8941422926422066,1.2143570434236015,NW,51.5142273,7.4652789,0.051111407999132705,-0.048158449794077116,-0.33234613796429624,-0.6836122428124187,-0.29704611083495075,-0.04644288699620958,-0.2762867589815105,16.7,-3.5,Overcast,-0.403657811759693,1.3214797237309008,-0.44871870557819354,0,3
Germany,Saxony,Dresden,"543,800",DE,-0.08634400515520578,0.14248140138150783,0.7196002508846208,0.9168666739688242,SN,51.0493286,13.7381437,0.313995238390262,0.08008015855395892,-0.37373472314544076,-0.3228909414441518,-0.3319520887483695,-0.29540626466618636,-0.4586053143838307,17.6,-7.8,Overcast,-0.3792291131985535,0.18298170922301363,-0.3728848303934997,0,4
Germany,North Rhine-Westphalia,Duisburg,"491,200",DE,-0.645891527834269,-0.25944654235242326,0.22282674742072242,0.2475133426955749,NW,51.434999,6.759562,-0.07259862983198659,-0.22329914175088517,-0.19937181813283955,-0.5625497799542065,-0.09741529333012167,0.0468724115026925,-0.17349946270475183,16.5,-2.3,Overcast,-0.5502300031265295,1.1692934837266642,-0.435961003572731,0,0
Germany,North Rhine-Westphalia,Düsseldorf,"612,200",DE,0.8798849644194651,0.9351206950707487,1.296931619775097,1.4374748205146846,NW,51.2254018,6.7763137,-0.14991740347643637,-0.29929239114231376,-0.2149763939410937,-0.5469685926048623,-0.1042134613132589,0.010373718395240162,-0.1981815776057878,16.3,-1.9,Overcast,-0.5013726060042506,1.15117607420235,-0.39797539229900875,2,2
Germany,Thuringia,Erfurt,"210,100",DE,-0.20459889396882222,0.09013729708127495,0.8878240286871809,-0.12434961912289687,TH,50.9777974,11.0287364,0.34492274784804194,0.163197775075834,-0.47666658861708144,-0.5215230564300346,-0.5079200523118927,-0.3265726550022729,-0.46650359115216217,16.9,-6.6,Overcast,-0.5990874002488082,0.07862543036296538,-0.3604082664630335,0,0
Germany,Bavaria,Erlangen,"108,300",DE,0.36071715987188074,0.39111589680761405,1.8023927361771557,1.139984451059907,BY,49.5891571,10.9812072,0.26760397420359217,-0.13483824988117535,-0.5039381369922525,-0.3847673113494602,-0.38921358060633565,-0.4627302481814589,-0.6400462834785579,17.2,-4.4,Overcast,-0.4525152088819718,0.5583744345667985,-0.12002388591390678,0,3
Germany,North Rhine-Westphalia,Essen,"582,600",DE,-0.34304364184817804,0.06957354182046917,1.00787104383267,1.4374748205146846,NW,51.4582235,7.0158171,-0.08806238456087681,-0.1419626170116218,-0.2565108162793247,-0.6137771369229124,-0.1703648651491763,-0.0011183134395996899,-0.2197921404302499,16.5,-3.2,Overcast,-0.52580130456539,1.3040870105875593,-0.435961003572731,0,5
Germany,Hesse,Frankfurt,"732,700",DE,1.3269461294465517,1.314615451247437,1.8316147069691497,1.3631022281509904,HE,50.1106444,8.6820917,-0.3509462149520056,-0.45721586253387647,-0.22737255229344525,-0.19230041437950782,-0.1039519933139081,-0.19813770721609938,-0.3433124132238804,16.0,-4.0,Overcast,-0.4525152088819718,0.0684796810293494,-0.20223969652985413,2,2
Germany,Baden-Württemberg,Freiburg im Breisgau,"226,400",DE,0.40974967474581925,0.48458751162945846,1.0955369562086519,0.8424940816051297,BW,47.9960901,7.8494005,-0.14991740347643637,-0.06359457857671076,-0.1772337376871111,-0.2482357560149206,-0.16461256916344222,-0.021895906996991003,-0.2593932225603576,18.7,-4.5,Overcast,-0.4525152088819718,0.7554918501913337,0.13688286083767187,0,1
Germany,Bavaria,Fürth,"124,200",DE,0.32033744174040196,0.374291006139682,1.1460830678488578,0.024395565604491843,BY,49.4885711,10.9587203,0.09750267218580254,-0.2725760144031399,-0.47386651520102036,-0.33510928260299033,-0.3617594406744353,-0.4482962561968996,-0.6158029617313181,17.4,-4.2,Overcast,-0.5013726060042506,0.15109506846022094,-0.09689533838091854,0,-1
Germany,North Rhine-Westphalia,Gelsenkirchen,"260,400",DE,-0.16998770699898325,0.050879218856100285,0.031699262781194,1.0656118586962129,NW,51.5110321,7.0960124,-0.01074361091642686,-0.28266886783793876,-0.24939396301350397,-0.594496818764013,-0.1788625751280978,0.012212443488814671,-0.2206697267378428,16.6,-3.8,Overcast,-0.5013726060042506,1.1700181801076366,-0.44871870557819354,0,2
Germany,Lower Saxony,Göttingen,"119,000",DE,0.04344794598169031,0.18547834419955628,0.4115848830771162,-0.27309480385028556,NI,51.5328328,9.9351811,0.3758502573058219,0.194070032641102,-0.5503143529457561,-0.7535594435749419,-0.5586448441860731,-0.2972449897597609,-0.508847130493495,17.1,-6.7,Overcast,-0.5502300031265295,0.5518521671380454,-0.46152184331057705,0,-3
Germany,North Rhine-Westphalia,Hagen,"189,000",DE,-0.06326988050864647,0.1649145889387505,0.6374628194692862,0.0987681579681862,NW,51.3582945,7.473296,0.2985314836613721,0.06226924072784293,-0.33526288110602476,-0.695270109606173,-0.2876332628582992,-0.058670408868479414,-0.2691563702323229,16.2,-2.3,Overcast,-0.52580130456539,1.5772975462142131,-0.4232518000522474,0,-2
Germany,Saxony-Anhalt,Halle,"237,000",DE,-0.5449422325055719,-0.16971379212345258,0.7962092013393077,1.139984451059907,ST,51.4824354,11.9712985,0.09750267218580254,-0.019660981272291073,-0.38901845720810413,-0.39653727301623126,-0.3567915486867568,-0.29356753957261195,-0.42536673298376887,17.5,-6.2,Overcast,-0.33037171607627475,-0.27140292164677976,-0.44871870557819354,0,7
Germany,Hamburg,Hamburg,"1,747,400",DE,0.9866027909098019,1.2959211282830683,1.0844799942873569,1.3631022281509904,HH,53.550341,10.000654,0.26760397420359217,0.027241102336481318,-0.6074241836608234,-0.9740500587991119,-0.5172021662888698,-0.27297381852457847,-0.5715945514863514,15.6,-4.8,Overcast,-0.6723734959322265,0.6591072315219837,-0.8409620277240742,2,2
Germany,North Rhine-Westphalia,Hamm,"179,400",DE,-0.0892282707360257,0.06770410952403229,-0.11756972315628895,-0.27309480385028556,NW,50.0165178,6.4184628,0.06657516272802293,0.005868000945142099,-0.5375098505535625,-0.8003030056229746,-0.500860416329404,-0.2577124002479107,-0.5106023031086793,15.2,-4.1,Overcast,-0.5746587016876687,1.164945305440829,-0.19037243364322395,0,-3
Germany,Lower Saxony,Hanover,"532,200",DE,0.3059161138363024,0.6528364183087785,0.48898361652618144,1.2143570434236015,NI,52.3744779,9.7385532,0.1593576911013626,-0.05765760596800556,-0.4424531915645922,-0.7207156457810006,-0.37993146662935917,-0.18480695028768482,-0.4194430254075197,17.2,-4.7,Overcast,-0.4769439074431112,0.4764837435168993,-0.6190327870786011,0,4
Germany,Baden-Württemberg,Heidelberg,"156,300",DE,0.9692971974248824,0.9575538826279913,1.3356309864996296,1.0656118586962129,BW,49.4093582,8.694724,-0.21177242239199612,-0.4073452926207515,-0.14643293011044548,-0.14869550877594712,-0.010215715546414664,-0.121738679578082,-0.251385247503577,16.7,-3.0,Overcast,-0.403657811759693,0.776508045239538,-0.08539024663519901,2,0
Germany,Baden-Württemberg,Heilbronn,"122,600",DE,0.9779499941673421,0.8042604343201665,0.3831526952795004,-0.19872221148659122,BW,49.142291,9.218655,-0.16538115820532626,-0.4679024132295462,-0.1913799419245001,-0.16719116282373075,-0.12565383726007695,-0.1420565918620792,-0.28122318196171825,18.8,-2.8,Overcast,-0.2082282232705776,0.4902529747553777,-0.05110581956352297,0,-5
Germany,North Rhine-Westphalia,Herne,"155,900",DE,0.17035563153776648,0.2845582559107114,-0.0820294884092692,0.9168666739688242,NW,51.5380394,7.219985,-0.04167112037420697,-0.27257601440313983,-0.3051620918833753,-0.6562610937963034,-0.2269726870087632,-0.029342743625967508,-0.2800165007887782,16.5,-4.8,Overcast,-0.5746587016876687,1.1461031995355422,-0.46152184331057705,0,1
Germany,Lower Saxony,Hildesheim,"101,700",DE,0.16170283479530673,0.2621250683534687,-0.1531099579033087,-0.19872221148659122,NI,52.1527188,9.9518083,0.1593576911013626,0.0034932119016595825,-0.4522242810893864,-0.6866388043838749,-0.42320442052202434,-0.21689270317055837,-0.41494539558110816,17.1,-6.1,Overcast,-0.5746587016876687,0.4040141054196437,-0.565720455451608,0,-3
Germany,Bavaria,Ingolstadt,"132,400",DE,0.352064363129421,0.3369023602109443,0.8720283687996165,-0.12434961912289687,BY,48.7630165,11.4250395,0.12843018164358266,-0.21379998557695656,-0.6153577250063277,-0.45695640957232053,-0.5066127123151356,-0.5791215466047198,-0.7510609513889958,16.6,-2.9,Overcast,-0.4769439074431112,0.20979547531899806,0.016440680159726252,0,-2
Germany,Thuringia,Jena,"109,500",DE,-0.36900203207555726,-0.296835188281161,1.0860595602761132,-0.049977026759202514,TH,50.9281717,11.5879359,0.40677776676360167,0.0361465612495394,-0.36982628733552264,-0.3972098422543324,-0.3869911026118491,-0.25477044009819144,-0.3734794425473688,17.3,-6.3,Overcast,-0.5502300031265295,0.01412745245640761,-0.34797773058533804,0,0
Germany,Baden-Württemberg,Karlsruhe,"307,800",DE,0.5655000161100946,0.7706106529843024,0.593234971784106,0.9168666739688242,BW,49.0068705,8.4034195,-0.2736274413075562,-0.5789238010123363,-0.06890589740327162,-0.025279053584379808,0.010701724401701166,-0.06234785905562821,-0.1690018328783419,18.3,-2.2,Overcast,-0.4525152088819718,0.5685201839004139,-0.02843979183891015,0,1
Germany,Hesse,Kassel,"198,000",DE,-0.2017146283880023,0.05648751574541095,0.3681468183863143,0.6937488968777411,HE,51.3157833,9.4978479,0.3758502573058219,0.13054442572795452,-0.5757191857102212,-0.7359605485112942,-0.5891058661105174,-0.3323646390470322,-0.5541525236229521,16.6,-6.8,Overcast,-0.5990874002488082,0.5482286852331825,-0.41059071939548064,0,2
Germany,Schleswig-Holstein,Kiel,"246,300",DE,0.23380947431580457,0.37242157384324515,0.3792037803076093,0.6937488968777411,SH,54.3227085,10.135555,0.3758502573058219,0.012992368075588385,-0.7241814116242618,-1.173130553277061,-0.79017475761178,-0.2658947269143168,-0.5952893817913459,14.7,-9.7,Overcast,-0.5502300031265295,0.667078891712682,-1.0022680176711833,0,0
Germany,Rhineland-Palatinate,Koblenz,"112,600",DE,0.10690178875972839,0.1948255056817407,0.95021688524306,-0.049977026759202514,RP,50.3533278,7.5943951,-0.18084491293421648,-0.32304028157713527,-0.2055261461618891,-0.37579972150811164,-0.19768827108140155,-0.03577828145347774,-0.19664580156750058,16.5,-2.5,Overcast,-0.6479447973710871,0.2750181496065282,-0.2501284181658266,0,-2
Germany,North Rhine-Westphalia,Krefeld,"225,100",DE,0.03191088365841065,0.2752110944285269,0.3333963666336728,0.0987681579681862,NW,51.3331205,6.5623343,-0.1963086676631062,-0.41268856796858633,-0.2895575160751223,-0.679576827383813,-0.20174102507134875,0.005041415623874241,-0.2607096020217456,16.6,-3.3,Overcast,-0.6235160988099476,0.6641801061887914,-0.4232518000522474,0,-1
Germany,Saxony,Leipzig,"560,500",DE,0.20496681850760542,0.3948547614004878,0.5648027839864902,1.139984451059907,SN,51.3406321,12.3747329,0.2985314836613721,0.029615891379963472,-0.38554753286944593,-0.38532778571454446,-0.35430760269291817,-0.30322084631387775,-0.41384841269661876,17.3,-5.5,Overcast,-0.3059430175151353,-0.06848793497446391,-0.4232518000522474,0,5
Germany,North Rhine-Westphalia,Leverkusen,"163,500",DE,1.312524801542452,1.0435477682640881,1.478581708482087,0.39625852742296364,NW,51.0324743,6.9881194,-0.22723617712088634,-0.3539125391424031,-0.2140138687043231,-0.5373284335254126,-0.12421576326364471,0.01064952715927646,-0.1875408436262306,16.6,-2.0,Overcast,-0.4525152088819718,0.9286942852437751,-0.3604082664630335,2,-4
Germany,Schleswig-Holstein,Lübeck,"216,300",DE,0.42993953381155864,0.4939346731116429,0.7196002508846208,-0.12434961912289687,SH,53.866444,10.684738,0.313995238390262,-0.09446683614197887,-0.7367817419965342,-1.1207822475781855,-0.7615440116827964,-0.3250097386727344,-0.6473960688046446,15.5,-9.9,Overcast,-0.6723734959322265,0.4228562113249299,-0.9133517592324407,0,-3
Germany,Rhineland-Palatinate,Ludwigshafen,"164,700",DE,0.9289174792934036,0.7687412206878655,1.0900084752480044,-0.049977026759202514,RP,49.4704113,8.4381568,-0.3664099696808957,-0.5498326352296803,-0.11566128996519828,-0.07146214126732822,0.01893796638127191,-0.12330159590761999,-0.23383352135172866,17.1,-2.9,Overcast,-0.4525152088819718,-0.03370250868778117,-0.09689533838091854,0,-3
Germany,Saxony-Anhalt,Magdeburg,"235,700",DE,-0.5160995766973728,-0.12671684930540414,0.5008303614418547,-0.27309480385028556,ST,52.1314783,11.6400789,0.020183898541353086,-0.2464533349248361,-0.39240187925251047,-0.4491097684611394,-0.29835345083170856,-0.29577400968490136,-0.43304561317520285,17.5,-6.2,Overcast,-0.5746587016876687,-0.3308280248865293,-0.565720455451608,0,0
Germany,Rhineland-Palatinate,Mainz,"209,800",DE,0.352064363129421,0.4808486470365847,0.8206924741650324,0.17314075033188056,RP,49.9995205,8.2736253,-0.25816368657866595,-0.4263436049686086,-0.19210912770993238,-0.1704419141412196,-0.07845886337714157,-0.16421322923965143,-0.2939481834218079,16.0,-2.8,Overcast,-0.33037171607627475,-0.038050686973616514,-0.19037243364322395,0,0
Germany,Baden-Württemberg,Mannheim,"305,800",DE,0.6260695933073127,0.6472281214194677,2.108038755001526,1.288729635787296,BW,49.4892913,8.4673098,-0.24269993184977606,-0.4851196337947917,-0.12111559964023172,-0.11271305453753272,0.029135218355978394,-0.11723380309882453,-0.22977468467911386,16.8,-2.8,Overcast,-0.5013726060042506,0.35908292979934503,-0.09689533838091854,2,3
Germany,North Rhine-Westphalia,Moers,"104,500",DE,-0.12672372328668455,0.08639843248840116,0.48819383353180323,0.0987681579681862,NW,51.451283,6.62843,-0.16538115820532626,-0.2785129870118452,-0.24087707303965328,-0.6184851215896214,-0.14251852321824623,0.029772268132450205,-0.216610890065228,16.3,-2.5,Overcast,-0.5990874002488082,0.8939088589570923,-0.435961003572731,0,-1
Germany,North Rhine-Westphalia,Mönchengladbach,"260,000",DE,0.16747136595694656,0.32194690183944913,0.6019225847222665,0.17314075033188056,NW,51.1947131,6.4353792,-0.2736274413075562,-0.4103137789251041,-0.32753351178044265,-0.6987450506696933,-0.26357820691796624,-0.03669764400026488,-0.2830880528653521,16.9,-3.8,Overcast,-0.52580130456539,0.6286699835211363,-0.39797539229900875,0,-1
Germany,North Rhine-Westphalia,Mülheim,"169,300",DE,-0.07192267725110621,0.12004821382426517,0.42738054296468053,0.17314075033188056,NW,51.4272925,6.8829192,-0.07259862983198659,-0.22329914175088517,-0.23938953403737087,-0.6016708906370918,-0.14330292721630053,0.016165702439999544,-0.21057748420053032,16.3,-2.4,Overcast,-0.5502300031265295,1.1692934837266642,-0.435961003572731,0,-2
Germany,Bavaria,Munich,"1,450,400",DE,1.9672530883885724,1.8399259265462027,1.3103579306795268,1.288729635787296,BY,48.1371079,11.5753822,0.6078065782391711,0.5401955357286249,-0.6564254684418821,-0.556608751684312,-0.6000875220832782,-0.5553100566429311,-0.7579719435612858,16.6,-5.1,Overcast,-0.23265692183171707,0.8685444856230526,0.11530063050505213,2,0
Germany,North Rhine-Westphalia,Münster,"310,000",DE,0.8048940593181474,0.7631329237985549,0.8578122749008086,0.9168666739688242,NW,51.9625101,7.6251879,0.035647653270242975,-0.2814814733161977,-0.4270236203448429,-0.7997425312578892,-0.36162870667475955,-0.10197238482215697,-0.3982712557368528,16.6,-5.8,Overcast,-0.6479447973710871,0.7395485298099376,-0.5393716200733328,0,0
Germany,North Rhine-Westphalia,Neuss,"155,400",DE,0.27130492686646346,0.32007746954301225,0.2836400379878451,1.139984451059907,NW,51.1981778,6.6916476,-0.22723617712088634,-0.43049948579470226,-0.24428966251547746,-0.594384723890995,-0.158860273177712,0.010189845885882556,-0.2159527003345337,16.9,-3.0,Overcast,-0.5746587016876687,0.7105606745710354,-0.39797539229900875,0,2
Germany,Bavaria,Nuremberg,"510,000",DE,0.3261059729020418,0.5388010482261283,1.05209889151785,1.139984451059907,BY,49.453872,11.077298,0.2830677289324819,-0.10099750601155472,-0.4729914922585016,-0.3492332366031154,-0.33012181275290947,-0.46024796930513334,-0.6109762370395599,17.4,-4.4,Overcast,-0.42808651032083234,0.4532934593257773,-0.09689533838091854,0,4
Germany,North Rhine-Westphalia,Oberhausen,"211,000",DE,0.03479514923923057,0.23595301620335227,0.18649672967932446,0.0987681579681862,NW,51.4696137,6.8514435,-0.16538115820532626,-0.34678817201195683,-0.24131458451091264,-0.6005499419069232,-0.15114696719684348,0.021314132702008083,-0.21847576096886182,16.4,-4.0,Overcast,-0.5013726060042506,1.083779310771902,-0.44871870557819354,0,-2
Germany,Hesse,Offenbach am Main,"211,000",DE,0.4010968780033595,0.46963205325796337,0.46607990968921315,0.024395565604491843,HE,50.1055002,8.7610698,-0.1963086676631062,-0.4435608255338542,-0.21856398800542107,-0.1957753554430293,-0.12055521127272467,-0.1760730060932064,-0.3191787897650891,16.1,-3.3,Overcast,-0.52580130456539,0.11196146388770284,-0.20223969652985413,0,-1
Germany,Lower Saxony,Oldenburg,"163,800",DE,0.47320351752385736,0.4640237563686527,0.6982761100364089,0.8424940816051297,NI,53.1389753,8.2146017,-0.02620736564531675,-0.24289115135961295,-0.5403099239696224,-1.0340208158631348,-0.5059590423167564,-0.1107982652713143,-0.4634320390755888,16.3,-3.9,Overcast,-0.6968021944933658,0.8134675606691384,-0.7560522613465152,0,0
Germany,Lower Saxony,Osnabrück,"162,400",DE,-0.23921008093866117,-0.08745877108022948,0.2449406712633125,-0.19872221148659122,NI,52.2719595,8.047635,0.11296642691469276,-0.10396599231590722,-0.4486075195936417,-0.8200317032739404,-0.38097733862676425,-0.12789840864155638,-0.4124223349467811,16.4,-5.1,Overcast,-0.6723734959322265,1.0475444917232746,-0.5922717073544866,0,-3
Germany,North Rhine-Westphalia,Paderborn,"148,100",DE,0.07229060178988944,0.20604209946036206,0.3152313577629738,-0.27309480385028556,NW,51.7177044,8.752653,0.3758502573058219,0.3893964314675086,-0.4047688701734447,-0.7398838690668843,-0.36528925866567896,-0.11907252819239904,-0.3496749139539247,16.7,-5.3,Overcast,-0.403657811759693,1.770066783552914,-0.4872745966243933,0,-5
Germany,Baden-Württemberg,Pforzheim,"122,200",DE,0.01748955575431109,0.1611757243458767,0.6500993473793376,0.024395565604491843,BW,48.890934,8.7025509,-0.02620736564531675,-0.300479785664055,-0.22398913024903833,-0.24576966880854975,-0.22919516500325038,-0.12247416961551176,-0.2634520592329718,18.6,-2.3,Overcast,-0.33037171607627475,0.41995742580103984,-0.005925168380797995,0,0
Germany,Brandenburg,Potsdam,"167,700",DE,0.8250839183838867,0.7911744082451082,0.9044094715691234,0.17314075033188056,BB,52.4009309,13.0591397,0.2521402194747023,-0.0825928909245681,-0.4169025216430401,-0.47859072006457504,-0.30083739682554783,-0.33769694181839804,-0.44423483859700524,16.9,-7.0,Overcast,-0.5013726060042506,-0.1474798405004725,-0.6190327870786011,0,-1
Germany,North Rhine-Westphalia,Recklinghausen,"114,300",DE,-0.21613595629210186,0.10509275545277005,0.47871643759926463,-0.049977026759202514,NW,51.6143815,7.1978546,-0.01074361091642686,-0.26188946370747,-0.36772623227347767,-0.7210519304000512,-0.2920782188472736,-0.07687378729486624,-0.34056995601265366,16.5,-5.3,Overcast,-0.5746587016876687,1.025078903913125,-0.47437506869486434,0,-2
Germany,Bavaria,Regensburg,"145,500",DE,0.3376430352253214,0.45093773029359446,0.9107277355241492,0.8424940816051297,BY,49.0195333,12.0974869,0.20574895528803244,-0.01906728401142053,-0.6244871310399415,-0.43397696060386487,-0.49536958834302464,-0.6195734986633573,-0.7690514706946403,16.3,-3.8,Overcast,-0.5990874002488082,0.08152421588685543,-0.02843979183891015,0,3
Germany,North Rhine-Westphalia,Remscheid,"109,500",DE,0.1328601789871076,0.24156131309266293,0.46055142872856564,0.17314075033188056,NW,51.1798706,7.1943544,0.6232703329680604,0.6203446659461471,-0.8527222818802901,-1.1948769586423325,-0.820243577537196,-0.4778997302034479,-0.7792534115204013,14.1,-6.4,Overcast,-0.5013726060042506,2.16575100756393,-0.39797539229900875,0,-4
Germany,Baden-Württemberg,Reutlingen,"114,310",DE,0.6433751867922322,0.7425691685377491,0.9352110083498739,1.0656118586962129,BW,48.4919508,9.2114144,0.20574895528803244,-0.12415169918550555,-0.4330321112168049,-0.4403663683658246,-0.48961729235729184,-0.25872369904937664,-0.4781316097277608,17.6,-4.7,Overcast,-0.33037171607627475,0.5351841503756765,0.06073450396661878,0,2
Germany,Mecklenburg-Vorpommern,Rostock,"206,000",DE,-0.2882425958125997,0.004143411445178067,0.24336110527455607,0.5450037121503524,MV,54.0886707,12.1400211,0.23667646474581205,-0.09743532244633148,-0.7186979345178109,-1.052852754529968,-0.7785394316406401,-0.34928090990791705,-0.6026391671174317,15.6,-7.1,Overcast,-0.5502300031265295,0.4214068185629851,-0.9575251530807859,0,1
Germany,Saarland,Saarbrücken,"178,200",DE,-0.24209434651948109,0.0004045468523042894,0.6809008841600881,0.7681214892414354,SL,49.234362,6.996379,-0.16538115820532626,-0.286231051403162,-0.24379381618138238,-0.3504662802062997,-0.1427799912175983,-0.1181531656456119,-0.3131453839003914,15.9,-4.4,Overcast,-0.42808651032083234,0.9286942852437751,-0.062494425374056736,0,2
Germany,Lower Saxony,Salzgitter,"101,100",DE,-0.10076533305930534,0.06022638033828473,-0.4232157419806588,-0.4218399885776743,NI,52.1503721,10.3593147,0.22121271001692233,-0.04162777992450101,-0.5022172585386335,-0.7255357253207254,-0.4819039863764246,-0.2581720815213044,-0.46639389286371313,16.9,-5.1,Overcast,-0.5013726060042506,0.24892907989151616,-0.565720455451608,0,-3
Germany,North Rhine-Westphalia,Siegen,"102,400",DE,-0.07769120841274604,-0.05380898974436548,0.3412941965774549,-0.19872221148659122,NW,50.8751175,8.0256131,0.43770527622138145,0.5093232781633563,-0.6602464019575484,-0.9501738508465202,-0.5999567880836025,-0.36086487799743594,-0.6193133069616876,15.4,-4.3,Overcast,-0.4769439074431112,1.9244271127000687,-0.3355913879949705,0,-5
Germany,North Rhine-Westphalia,Solingen,"158,700",DE,0.25111506780072407,0.3967241936969247,1.7368407476437637,0.5450037121503524,NW,51.1721629,7.0845893,0.2830677289324819,0.25225236420641445,-0.591790440421152,-0.9311177224336534,-0.5029521603242155,-0.29310785829921837,-0.5427439016242516,15.0,-5.0,Overcast,-0.403657811759693,2.081686227371113,-0.38540681560391155,0,-2
Germany,Baden-Württemberg,Stuttgart,"623,700",DE,1.4163583624519689,1.3613512586583594,0.9960242989169965,1.2143570434236015,BW,48.7784485,9.1800132,-0.01074361091642686,-0.28623105140316213,-0.27873639901930447,-0.2656104613325345,-0.22710342100843892,-0.1921618506619824,-0.3685430195671616,18.4,-2.8,Overcast,-0.3792291131985535,0.4467711918970243,0.016440680159726252,2,1
Germany,Rhineland-Palatinate,Trier,"114,900",DE,0.22227241199252493,0.4602848917757789,0.47555730562175175,0.6937488968777411,RP,49.7596208,6.6441878,-0.08806238456087681,-0.25476509657702356,-0.27231956410749875,-0.4664844737787545,-0.24409884096628326,-0.06804790684570867,-0.28166197511551444,16.6,-3.7,Overcast,-0.3792291131985535,0.8866618951473669,-0.14331221695714252,0,1
Germany,Baden-Württemberg,Ulm,"122,636",DE,0.6981762328278106,0.6846167673482055,1.219532886326032,0.8424940816051297,BW,48.3984968,9.9912458,0.40677776676360167,0.04742680920607946,-0.7440152649880247,-0.6744204632250365,-0.7125187618044003,-0.5939232836079941,-0.831689193399046,15.3,-5.3,Overcast,-0.28151431895399587,0.36995337551393337,0.0717184067506922,0,1
Germany,Hesse,Wiesbaden,"276,200",DE,0.7327874197976495,0.828563054173846,1.267709648983103,1.288729635787296,HE,50.0820384,8.2416556,-0.14991740347643637,-0.2589209774031176,-0.278736399019305,-0.3116814541424661,-0.15114696719684348,-0.20723939642929282,-0.36920120929785644,15.5,-4.8,Overcast,-0.3548004146374141,0.2010991187473274,-0.20223969652985413,2,3
Germany,Lower Saxony,Wolfsburg,"124,000",DE,-0.38053909439883693,-0.12297798471253037,1.661021580183455,0.024395565604491843,NI,52.4205588,10.7861682,0.19028520055914222,-0.07071894570715732,-0.4846001299625857,-0.6997539045268473,-0.44582140246592444,-0.2586317627946981,-0.4550949691534611,16.9,-6.4,Overcast,-0.5990874002488082,0.2670464894158304,-0.6190327870786011,0,0
Germany,North Rhine-Westphalia,Wuppertal,"350,000",DE,-0.38053909439883693,0.01722943752023629,0.5734903969246506,0.32188593505926927,NW,51.264018,7.1780374,0.4222415214924917,0.2884678971195173,-0.4240193749088608,-0.7765388925433998,-0.3391424587305345,-0.14950342849105613,-0.3718339682206325,15.7,-2.6,Overcast,-0.5013726060042506,1.962111324510641,-0.41059071939548064,0,-1
Germany,Bavaria,Würzburg,"124,900",DE,-0.27958979907014,-0.32113780813484055,0.8901933776703155,-0.19872221148659122,BY,49.7780356,9.9434769,-0.02620736564531675,-0.2998860884031843,-0.3950269480800672,-0.34912114173009745,-0.34502548871594235,-0.3187580733545815,-0.47418247134359504,17.0,-3.8,Overcast,-0.5013726060042506,0.14674689017438558,-0.15501565118136482,0,-1
Italy,Apulia,Bari,"316,736",IT,0.0405636804008704,0.20417266716392515,-0.3505557064978629,0.32188593505926927,AP,41.1257843,16.8620293,-1.0158876682942735,-0.8644921834910644,1.8615697183819384,1.8129647690191637,1.6260510243949393,1.6377373624632832,1.9085740520582013,21.9,2.7,Overcast,2.2834990299656424,-1.3439535654861645,1.0466524182663324,1,6
Italy,Lombardy,Bergamo,"119,809",IT,-0.034427224700447345,0.12752594301001272,-0.0535973006116534,0.6193763045140467,LO,45.7566557,9.7542192,-0.4591924980542353,-0.5064927351861311,-0.25788168555593793,-0.07112585664827654,-0.29835345083170856,-0.2620334042178106,-0.3372790073591827,17.1,-6.4,Overcast,-0.33037171607627475,0.859848129051382,0.46470204952941563,0,1
Italy,Emilia-Romagna,Bologna,"389,200",IT,0.317453176159582,0.4640237563686527,-0.15626908988082158,0.6193763045140467,ER,44.4938203,11.3426327,-0.8921776304631538,-0.5302406256209524,0.8494306807703206,1.3253520713958058,0.8787754822485049,0.32599088070729004,0.771331895706909,20.3,0.2,Overcast,0.15820225514651318,-0.7279616416594908,0.6360526145885445,5,4
Italy,Trentino-Alto Adige/Südtirol,Bolzano,"106,410",IT,0.16170283479530673,0.07331240641334295,-0.22813934236923927,-1.0911933198509236,TT,46.6559455,11.2302129,2.7727322402837635,4.981644744301108,-2.2050410721118423,-2.040520680681551,-2.463047017462336,-1.794518833457414,-2.0882830875829046,11.5,-12.7,Overcast,-0.25708562039285654,2.1447348125157255,0.3353295742423632,3,-12
Italy,Lombardy,Brescia,"197,236",IT,0.28284198918974307,0.5294538867439438,-0.24630435123993827,0.39625852742296364,LO,45.7795805,10.425873,0.6078065782391711,1.1671398432079108,-1.3120801592712992,-1.2107944306107283,-1.5737943516680655,-0.9751829317606507,-1.2656556225034856,15.1,-9.0,Overcast,-0.23265692183171707,1.1497266814404052,0.45492347206574385,0,0
Italy,Sardinia,Cagliari,"148,296",IT,-0.0690384116702863,0.2004338025710514,-0.3742491963292094,0.024395565604491843,SA,39.2171994,9.113311,-1.124133951396503,-0.8834904958389217,2.095142509171652,1.260785424538096,1.7780946660178054,2.2553651213949326,2.4628795035912465,20.0,10.9,Overcast,1.9170685515485513,-2.23533011408241,1.26987291482163,1,7
Italy,Sicily,Catania,"299,730",IT,-0.5680163571521313,-0.3379626988027726,-0.23919630429053432,0.32188593505926927,SI,37.5023612,15.0873718,-1.1086701966676131,-0.8828967985780511,2.110572080391404,1.9049946597660088,1.7715579660340195,1.8990201982602093,2.3211493149150755,24.2,7.2,Overcast,2.0147833457931084,-1.6968807030197999,1.4505191528585637,1,8
Italy,Emilia-Romagna,Ferrara,"129,724",IT,-0.3978446878837564,-0.16036663064126813,-0.4856085985365379,0.32188593505926927,ER,44.7667642,11.827939,-1.0468151777520531,-0.7600014655778501,0.7732453499083416,1.219646606140905,0.8438695043350861,0.23396268977389034,0.7273428820388399,18.6,-2.0,Overcast,-0.037227333342601816,-0.8888442382353986,0.5987148633269059,5,4
Italy,Tuscany,Florence,"362,742",IT,0.516467501236156,0.5724508295619922,-0.23208825734113037,0.6193763045140467,TU,43.7697955,11.2556404,-0.9231051399209338,-0.7303166025343233,1.0123891200987594,1.2359003627283516,0.8775988762514234,0.7880624967225426,0.9213991543052077,19.8,-2.1,Overcast,0.28034574795221057,0.20472260065219033,0.7276404504292827,5,1
Italy,Apulia,Foggia,"146,017",IT,-0.443992937176875,-0.2706631361310446,-0.4050507331099598,0.024395565604491843,AP,41.5028106,15.4528939,-1.0158876682942735,-0.8532119355345243,1.6356679620549754,1.9520745064330909,1.3269316331368841,1.2752327102650864,1.6063552673810726,22.5,0.1,Overcast,1.1597788961532294,-1.323662066818933,1.005235044371287,1,5
Italy,Emilia-Romagna,Forlì,"116,726",IT,0.21073534966924526,0.25277790687128426,-0.13494494903260973,0.17314075033188056,ER,44.2227278,12.041273,-0.9540326493787136,-0.814027916317069,0.8336219329421471,1.1860181442358468,0.8205988523928074,0.3999076294689819,0.8088487103564826,18.0,-1.0,Overcast,0.18263095370765303,-0.8402895807102374,0.6637885904297707,5,1
Italy,Liguria,Genoa,"561,191",IT,-0.045964287023727,0.2639945006499056,-0.2107641164929185,0.32188593505926927,LI,44.40726,8.9338624,-1.0468151777520531,-0.8158090080996806,1.2666416197633361,0.9417634159321021,1.1065141096836142,1.3548495068168587,1.2971157922432013,17.2,4.0,Overcast,-0.037227333342601816,1.0330505641038232,0.6453232798578304,5,0
Italy,Campania,Giugliano in Campania,"124,222",IT,-0.2882425958125997,-0.1678443598270157,-0.48165968356464683,-0.570585173305063,CM,40.9283217,14.2011232,-1.093206441938723,-0.8561804218388771,1.3513438405991665,1.366939269285062,1.079975107749442,1.2181402961096006,1.38498412129089,19.8,-0.6,Overcast,0.47577533644132597,-0.05616809649793028,1.0712659267096376,5,-1
Italy,Lazio,Latina,"127,719",IT,-0.34881217300981787,-0.2500993808702388,-0.3055380758183045,0.32188593505926927,LZ,41.4595261,13.0125912,-1.124133951396503,-0.8834904958389217,1.5876292025106873,1.4743261576352198,1.306144927188444,1.4984539366250207,1.6443108751844413,20.1,2.4,Overcast,1.0864928004698111,-0.7497025330886675,1.0135581616414417,1,4
Italy,Tuscany,Livorno,"153,859",IT,-0.14114505119078413,0.058356948041847836,-0.5219386162779359,0.5450037121503524,TU,42.7902379,10.3402239,-1.124133951396503,-0.8834904958389217,1.7262328366056818,1.3950750824122973,1.4291656208833003,1.7553238321973679,1.8334307244706034,19.5,8.1,Overcast,0.9399206091029747,-0.7359333018501891,0.8518661341556872,1,5
Italy,Sicily,Messina,"219,387",IT,-0.7295352296780464,-0.566033438968073,-0.3750389793235876,0.0987681579681862,SI,38.1937571,15.5542082,-1.093206441938723,-0.8716165506215109,1.9624598636543704,1.543152409667571,1.5818629325045448,1.9691675605800738,2.1936799037372796,25.8,8.9,Overcast,0.8422058148584172,0.020649719885160626,1.376365503857656,1,3
Italy,Lombardy,Milan,"1,358,420",IT,1.4711594084875472,1.5482944883020482,0.07197819549448305,0.8424940816051297,LO,45.4641943,9.1896346,-0.9076413851920437,-0.7053813175777607,0.5063341850086576,0.9286483157891288,0.7466034085763497,0.052664395547451885,0.30621115268294,20.3,-0.6,Overcast,-0.18379952470943828,0.12283190960229119,0.5035340944452772,5,0
Italy,Emilia-Romagna,Modena,"184,836",IT,0.1963140217651457,0.4135490843648567,-0.26052044513874617,0.470631119786658,ER,44.5384728,10.9359609,-0.830322611547594,-0.3456007774902156,0.7165730306645341,1.1438704719815065,0.7434657925841311,0.2712888091734509,0.6280659309924502,21.4,0.5,Overcast,0.2314883508299314,-0.6583907890861254,0.6267563926258002,5,3
Italy,Lombardy,Monza,"122,369",IT,0.38090701893762013,0.5331927513368175,-0.23998608728491252,0.6193763045140467,LO,45.6395418,9.2788304,-0.7993951020898141,-0.6834145189255509,0.4107525122541766,0.7657744652956266,0.578348750993693,0.05395150311295402,0.2457673957475142,18.9,-1.4,Overcast,-0.403657811759693,0.5598238273287433,0.47445216645825794,5,0
Italy,Campania,Naples,"917,510",IT,0.12420738224464788,0.23595301620335227,-0.4003120351436905,0.6937488968777411,CM,40.8358846,14.2487679,-1.093206441938723,-0.8787409177519574,1.7100740796005003,1.1493631207593313,1.346803201087594,1.8915733616312327,1.9196535791915559,18.9,7.0,Overcast,1.0864928004698111,-0.35184421993473364,1.0875785951135977,1,5
Italy,Piedmont,Novara,"101,797",IT,-0.5968590129603304,-0.4015233968816268,-0.26841827508252836,0.6193763045140467,PI,45.58425,8.545997,-0.7993951020898141,-0.6181078202297919,0.20071783861822154,0.4678262928168019,0.42708951336888074,-0.10482240871719732,0.0637779352105412,19.0,-5.8,Overcast,-0.3059430175151353,0.3061800939883485,0.4841739095341044,5,3
Italy,Veneto,Padua,"207,112",IT,0.47897204868549714,0.542539912819002,-0.21708238044794426,0.470631119786658,VE,45.4077172,11.8734455,-0.9849601588364935,-0.6834145189255509,0.6245789519743794,1.1001534715049288,0.7754956225046835,0.10221803681928272,0.49971893350706265,16.6,-2.2,Overcast,0.03605876234081655,-0.5888199365127599,0.5131733453110363,5,2
Italy,Sicily,Palermo,"632,499",IT,-0.5016782487932733,-0.3323544019134619,-0.6238206225527259,0.0987681579681862,SI,38.1112268,13.3524434,-1.0468151777520531,-0.8674606697954171,2.1773363309055953,1.7609527479393385,1.8526130458329686,2.096591209564781,2.409456437116558,24.7,9.3,Overcast,2.307927728526781,-0.7214393742307379,1.3838507689870334,1,5
Italy,Emilia-Romagna,Parma,"197,018",IT,0.005952493431031438,0.20604209946036206,-0.2944811138970095,0.17314075033188056,ER,44.6952006,10.0979869,-0.7530038379031443,-0.35331884188153256,0.6715968514190623,1.0268434245519011,0.6964015527008702,0.30346649831100336,0.5745331662293149,20.8,-1.0,Overcast,0.28034574795221057,-0.33372681041041985,0.6080879576276277,5,2
Italy,Umbria,Perugia,"162,367",IT,-0.743956557582146,-0.49312557940703433,-0.47771076859275574,0.17314075033188056,UM,43.1070321,12.4029962,-0.9540326493787136,-0.7481275203604394,0.6884847942096772,0.9349256286780727,0.4184610693902822,0.5393749278166019,0.6797338248519532,18.4,-3.0,Overcast,0.3780605421967679,-0.35111952355376125,0.8080167569952126,5,3
Italy,Abruzzo,Pescara,"118,829",IT,-0.7843362757136247,-0.5847277619324419,-0.20839476750978386,-0.9424481351235348,AB,42.3102619,13.9575901,-0.7530038379031443,-0.3859721912294122,1.019826815110169,1.1672983004420296,0.7401974425922383,0.8406500343987714,1.0690530505576283,21.2,0.0,Overcast,0.47577533644132597,-0.362714665649322,0.9123261774114385,5,-1
Italy,Emilia-Romagna,Piacenza,"102,728",IT,-0.10076533305930534,0.19295607338530382,-0.1902297586390849,-0.7193303580324517,ER,44.8476352,9.6665313,-0.5365112716986851,0.29024898890212897,0.31665837850197626,0.5444991859603376,0.23294952385043105,0.16786052265988957,0.26233183730332055,19.3,-0.8,Overcast,0.0849161594630952,0.22356470655747698,0.5893161112039297,5,-3
Italy,Tuscany,Prato,"196,317",IT,0.023258086915950917,0.23969188079622605,-0.1997071545716235,-0.4218399885776743,TU,43.9357181,11.0941473,-0.9076413851920437,-0.7451590340560866,0.6311999589061056,0.8267540762168002,0.4740230192524653,0.5232860832478257,0.5427206625790897,17.4,-2.9,Overcast,0.20705965226879236,0.46488860142133853,0.7095188044271277,5,-2
Italy,Emilia-Romagna,Ravenna,"156,050",IT,-0.47571985856589405,-0.17719152130920013,-0.4342727039019538,0.024395565604491843,ER,44.3640607,12.0590095,-0.9540326493787136,-0.8365884122301492,0.8214591140411321,1.244980047442716,0.8445231743334654,0.31891178909702833,0.7819726296864667,17.9,-1.5,Overcast,0.25591704939107124,-0.8642045612823318,0.6453232798578304,5,3
Italy,Calabria,Reggio Calabria,"171,181",IT,-0.8276002594259234,-0.5940749234146263,-0.8465394269673829,-0.12434961912289687,CA,38.1035389,15.6397556,-1.124133951396503,-0.8834904958389217,2.0555331373069636,1.6518844364939322,1.66213360830544,2.0520021260456014,2.271126895382309,24.6,8.7,Overcast,1.0132067047863929,-0.40039887745989483,1.3838507689870334,1,3
Italy,Emilia-Romagna,Reggio Emilia,"170,451",IT,-0.37188629765637715,-0.06128671893011304,-0.24946348321745113,0.32188593505926927,ER,44.6086674,10.5940667,-0.7839313473609242,-0.2755445007074924,0.4504493864131171,0.8978222257094909,0.46513310727451534,0.05385956685827532,0.3609505986190159,20.9,-1.0,Overcast,0.28034574795221057,-0.4583745879376996,0.6174348162272101,5,4
Italy,Emilia-Romagna,Rimini,"149,681",IT,-0.02289016237716769,0.1649145889387505,-0.2984300288689006,-0.049977026759202514,ER,43.9465433,12.630749,-1.0004239135653834,-0.7932485121866001,1.0228018931147334,1.208885498331287,0.9262319241307924,0.7485299072106925,0.9933612315277837,20.3,1.1,Overcast,0.5246327335636044,-0.5743260088933085,0.7004221962764219,5,1
Italy,Lazio,Rome,"2,755,309",IT,0.9894870564906217,1.011767419224661,-0.05991556456667913,0.9168666739688242,LZ,41.8933203,12.4829321,-1.1086701966676131,-0.8781472204910868,1.4919308600305365,1.6629818289226002,1.2471838933346928,1.2304597542365485,1.4690130102428614,20.5,1.4,Overcast,1.0864928004698111,-0.7815891738514602,0.9633149302978227,1,4
Italy,Campania,Salerno,"127,485",IT,0.03479514923923057,0.07331240641334295,-0.5069327393847498,0.32188593505926927,CM,40.4194417,15.3106085,-0.830322611547594,-0.5872355626645238,0.7058394159029683,0.6314848074214231,0.2971399176912114,0.8142643293059783,0.8157597025287737,18.2,0.2,Overcast,0.8422058148584172,0.5460545960902649,1.1360610006166794,5,1
Italy,Sardinia,Sassari,"121,409",IT,-0.5737848883137711,-0.39217623539944235,-0.6617302062828803,-0.34746739621397993,SA,40.7234746,8.5612674,-1.0158876682942735,-0.846087568404078,1.5008852614756467,1.2462130910459013,1.2142389254164105,1.4920183987975104,1.6261009593018991,20.0,4.8,Overcast,1.721638963059435,-0.8989899875690145,1.0957061870647975,1,3
Italy,Sicily,Syracuse,"116,635",IT,-0.5968590129603304,-0.4613452303676072,-0.5653766809687378,-0.19872221148659122,SI,37.0646139,15.2907196,-1.124133951396503,-0.8834904958389217,2.242671377280342,1.9658621758141666,1.9144502276795847,2.0735152096404215,2.430299111921878,23.6,7.8,Overcast,2.918645192555267,-1.5425203738726452,1.4942830906266644,1,6
Italy,Apulia,Taranto,"188,310",IT,-0.5247523734398326,-0.31366007894909304,-0.5645868979743596,-0.049977026759202514,AP,40.5488156,17.0805801,-1.1086701966676131,-0.8799283122736984,1.8821327575311337,2.042535068957699,1.5291771306352275,1.5602350997691214,1.9350113395744215,19.8,3.4,Overcast,1.8437824558651332,-1.5330993209200021,1.1199752219078822,1,6
Italy,Umbria,Terni,"106,793",IT,-0.9631607417244593,-0.7062408612008396,-0.5290466632273398,0.17314075033188056,UM,42.6539486,12.4396528,-0.8921776304631538,-0.7629699518822028,0.7000934319137619,0.9781942496625817,0.37113536150767046,0.5778042822723072,0.6749071001601941,17.4,-2.7,Overcast,0.6467762263693018,-0.22647174602648107,0.8692494387601566,5,4
Italy,Trentino-Alto Adige/Südtirol,Trento,"118,277",IT,0.13862871014874745,0.24903904227841048,-0.19891737157724526,-0.8680755427598404,TT,46.1029536,11.1297425,-0.04167112037420697,0.33893216429351275,-0.4968796185892681,-0.1894980425540853,-0.5038672983219455,-0.5443696423361631,-0.6109762370395599,16.0,-9.6,Overcast,-0.28151431895399587,-0.21705069307383798,0.4155260737948586,0,-3
Italy,Friuli-Venezia Giulia,Trieste,"199,032",IT,0.08094339853234918,0.22660585472116782,-0.376618545312344,0.0987681579681862,FG,45.6496485,13.7772781,-0.5519750264275749,-0.4304994857947023,0.8069337331953201,0.9360465774082414,0.8232135323863224,0.5939850630957624,0.7193349069820594,17.2,-0.1,Overcast,0.10934485802423478,0.6699776772365721,0.47445216645825794,5,0
Italy,Piedmont,Turin,"847,398",IT,-0.06615414608946639,0.19295607338530382,-0.252622615194964,0.6193763045140467,PI,45.0677551,7.6824892,-0.7839313473609242,-0.6026716914471578,0.23140197646921687,0.842671548185195,0.4423853913309395,-0.285661021670242,0.015291291716061643,18.3,-6.9,Overcast,-0.403657811759693,-0.34387255974403536,0.5514586590187661,5,3
Italy,Veneto,Venice,"250,913",IT,0.24246227105826432,0.42102681355060423,-0.405840516104338,0.39625852742296364,VE,45.4371908,12.3345898,-1.0004239135653834,-0.7119119874473366,0.6443253030438895,1.064619396758584,0.7817708544891185,0.17383637921400635,0.5180385476780538,16.7,-1.5,Overcast,0.011630063779676967,-0.5112774237486961,0.5035340944452772,5,2
Italy,Veneto,Verona,"256,049",IT,0.1732398971185864,0.33316349561807046,-0.14995082592579584,0.5450037121503524,VE,45.4424977,10.9857377,-0.9540326493787136,-0.8247144670127385,0.6460461814975103,1.0624895941712627,0.8381172083493553,0.19599301659157828,0.45287776433931826,17.9,-2.3,Overcast,-0.15937082614829884,-0.5373664934637081,0.5035340944452772,5,3
Italy,Veneto,Vicenza,"110,283",IT,0.05498500830496996,0.1780006150138087,-0.2913219819194966,0.32188593505926927,VE,45.6348591,11.4063543,-0.7530038379031443,-0.6157330311863097,0.08247307165249913,0.28006738051355534,0.09515588819221814,-0.021528161978276013,-0.018056987972448653,16.5,-3.2,Overcast,-0.13494212758715937,0.5228643118991428,0.47445216645825794,5,0
Greece,Attica,Athens,"643,452",GR,-0.21613595629210186,-0.07998104189448192,-0.8765511807537552,0.39625852742296364,,37.9755648,23.7348324,-1.093206441938723,-0.7368472724038992,2.0920215940100024,2.4052740780402715,1.8771910377720031,1.5792659044876172,2.0546921722723344,20.8,3.2,Overcast,3.1629321781666615,-1.8802288874058568,1.397730581754229,1,9
Greece,Western Greece,Patras,"169,886",GR,-0.7324194952588663,-0.6875465382364707,-0.9776434040341669,-0.4218399885776743,,38.246242,21.7350847,-1.0313514230231633,-0.7801871724474484,2.249788230546161,2.328040710531649,1.946741525599489,1.9186945567614553,2.260266764825853,22.0,7.5,Overcast,2.943073891116407,-0.7221640706117103,1.367809631421695,1,4
Greece,Crete,Heraklion,"145,440",GR,-0.49590971763163344,-0.4164788552531219,-0.9373644713208779,-0.19872221148659122,,35.33908,25.1332843,-1.0468151777520531,-0.8591489081432298,2.3054396896903637,1.9002866750993008,2.157746201076106,2.1881597192247875,2.389601046907282,24.7,8.7,Overcast,5.166085460180093,-1.582378674826136,1.6701934523273654,1,8
Greece,Thessaly,Larissa,"146,377",GR,-0.7266509640972265,-0.616508110971869,-1.010814289798052,-0.4218399885776743,,39.6383092,22.4160706,-1.0158876682942735,-0.8377758067518903,1.3528022121700298,2.146671205990367,1.275160969265296,0.6288289036189976,1.1667942255657313,21.8,-1.6,Overcast,2.3323564270879213,-1.6584717948282544,1.2221195035253503,1,5
Greece,Attica,Piraeus,"168,151",GR,-0.709345370612307,-0.5641640066716361,-0.9389440373096343,-0.7937029503961461,,37.9431594,23.6470593,-1.1086701966676131,-0.7801871724474484,2.208020468756592,2.5549207335177835,1.9743263995310678,1.6717537766944108,2.1526527438573355,21.5,2.9,Overcast,3.285075670972358,-1.8802288874058568,1.4051717836190325,1,5
Greece,Thessaly,Volos,"139,670",GR,-0.8939383677847814,-0.7062408612008396,-1.0479340905338281,-1.5374288740330897,,39.3624833,22.9401864,-0.9694964041076036,-0.8217459807083858,1.7159075658839595,1.967095219417353,1.5636909065496196,1.3144894910129001,1.6479309187032625,20.8,2.7,Overcast,2.2102129342822243,-1.5657106580637672,1.253296213557519,1,0
Greece,Attica,Peristeri,"133,630",GR,-0.6083960752836101,-0.5361225222250827,-1.1837767655668814,-0.9424481351235348,,38.0128111,23.6955137,-1.093206441938723,-0.7368472724038992,2.1545565669686857,2.465917404342392,1.9476566635972192,1.6279001832126607,2.113380756592576,21.0,3.4,Overcast,3.1629321781666615,-1.8802288874058568,1.397730581754229,1,3
Greece,Central Macedonia,Thessaloniki,"309,617",GR,-0.6228174031877096,-0.4744312564426654,-0.9199892454445571,0.0987681579681862,,40.6403167,22.9352716,-0.9231051399209338,-0.6454178942298365,1.399440935006289,1.9139622496073585,1.2691472052802137,0.8433161857844539,1.3190554499330112,20.0,2.1,Overcast,1.8193537573039935,-1.4722248249183072,1.1026617828599756,1,6
Hungary,Central Hungary,Budapest,"1,671,004",HU,-0.2247887530345616,-0.19027754738425837,-0.6254001885414823,0.39625852742296364,,47.4813896,19.1460941,-0.33548246022311573,-0.2844499596205504,-0.012029406139542674,0.647514374262837,0.2269357598653481,-0.4881965907274648,-0.28681779467262025,16.7,-4.1,Overcast,-0.2082282232705776,-0.9656620546184895,0.2113558312605489,5,3
Hungary,Northern Great Plain,Debrecen,"201,582",HU,-0.6401229966726291,-0.7866264499476259,-0.9697455740903848,-0.6449577656687574,,47.531399,21.6259782,-0.14991740347643637,-0.3040419692292783,-0.02016711950496745,0.5442749962143039,0.2138623598977746,-0.42374927619768105,-0.28232016484620875,18.7,-5.0,Overcast,-0.037227333342601816,-0.889568934616371,0.2008155516454881,5,0
Hungary,Western Transdanubia,Győr,"130,020",HU,-1.0987212240229953,-1.154904612345693,-0.810209409225985,-1.4630562816693953,,47.6835029,17.6342832,-0.32001870549422584,-0.41446965975119787,0.04350538327899145,0.45123625161030706,0.26707109776579485,-0.3091967028679946,-0.13313049255550188,16.9,-3.0,Overcast,-0.28151431895399587,-0.9707349292852977,0.1796393968016783,4,-3
Hungary,Southern Great Plain,Kecskemét,"109,731",HU,-0.9516236794011796,-1.0913439142668386,-0.9736944890622758,-0.49621258094136866,,46.9073883,19.6917206,-0.3664099696808957,-0.37350454875113087,0.14217880376370645,0.759833437025731,0.3870849094681091,-0.3386163043651853,-0.12962014732513177,17.4,-3.0,Overcast,0.011630063779676967,-1.092483921288687,0.2945071266540097,5,0
Hungary,Northern Hungary,Miskolc,"145,248",HU,-1.0179617877600378,-1.0576941329309748,-0.9365746883264996,-0.6449577656687574,,48.1030643,20.7900429,-0.11898989401865642,-0.26545164727269327,-0.23915619458603254,0.30271054486296267,0.028743016356951246,-0.5871200007617688,-0.5192684678961547,17.2,-5.5,Overcast,-0.2082282232705776,-0.9004393803309593,0.11530063050505213,4,0
Hungary,Northern Great Plain,Nyíregyháza,"115,711",HU,-1.3179254081653087,-1.3904530816967409,-0.6672586872435278,-1.5374288740330897,,47.9557802,21.7167982,-0.16538115820532626,-0.2891995377075146,-0.12534487719574006,0.42141901538782195,0.1224792941244447,-0.5022628376933089,-0.38730142689194946,18.3,-5.1,Overcast,-0.13494212758715937,-0.790285530423131,0.13688286083767187,4,-4
Hungary,Southern Transdanubia,Pécs,"141,031",HU,-0.8247159938451035,-0.8333622573585481,-1.134810219915432,-0.7937029503961461,,46.0765092,18.2280317,-0.21177242239199612,-0.1265264882289877,0.18065064580312132,0.6200511303737026,0.354662877548529,-0.20199902991260568,0.016059179735205514,17.1,-2.9,Overcast,0.10934485802423478,-0.8830466671876179,0.4155260737948586,5,0
Hungary,Southern Great Plain,Szeged,"158,829",HU,-1.0179617877600378,-1.0184360547058,-0.8165276731810107,-0.6449577656687574,,46.2546312,20.1486016,-0.4437287433253454,-0.5397397817948811,0.31482083032268693,0.9484891083131114,0.5255322151246999,-0.21578946811441385,0.07233440170956754,18.4,-3.4,Overcast,-0.13494212758715937,-1.1142248127178638,0.39565449496905164,5,0
Ireland,Dublin,Dublin,"592,713",IE,3.1584547732671964,2.5783516836387737,1.4296151628306375,1.4374748205146846,,53.3493795,-6.2605593,-0.6447575548009147,-0.496399881751332,-0.48066252672125087,-1.6250970812810557,-0.40267918257293567,0.4973600594284264,-0.47297579017065605,14.4,-1.6,Light Drizzle,-0.8189456872990629,1.045370402580357,-0.7963614947017568,2,-5
Ireland,Cork,Cork,"131,423",IE,2.304712161344502,1.8567508172141347,0.8151639932043849,0.8424940816051297,,51.8985136,-8.4726423,-0.7066125737164745,-0.6596666284907294,-0.4084439665320234,-1.6347372403605054,-0.3501241147032953,0.6234046645929532,-0.386423840584356,14.0,-0.4,Light Drizzle,-0.9655178786658994,1.7418036246949842,-0.5244943883596952,2,-7
Iceland,Capital,Reykjavík,"136,894",IS,3.576673282486084,3.3448189251778984,1.631799609391461,1.0656118586962129,,64.145981,-21.9422367,3.4531374483549224,5.62580627234564,-2.540349863685087,-3.1754812699772925,-2.5982259731270334,-1.5126422766124548,-2.461586363175019,9.2,-11.3,Overcast,-0.8433743858602023,2.9687145976815232,-4.184514125199051,3,-16
Netherlands,Flevoland,Almere,"226,438",NL,1.5980670940436235,1.4043482014764077,0.8522837939401611,1.139984451059907,,52.4417513,5.2092943,-0.25816368657866595,-0.1597735348377376,-0.3663261955654477,-1.0068938565930532,-0.4096080845557492,0.1562765545703706,-0.2351499008131183,17.1,-5.1,Overcast,-0.7945169887379236,0.9315930707676651,-0.6190327870786011,2,-1
Netherlands,North Holland,Amsterdam,"935,521",NL,3.593978875971003,3.064404080712365,1.901115610474433,1.4374748205146846,,52.3730796,4.8924534,-0.25816368657866595,-0.29751129935970216,-0.41465662942390813,-1.0702274598475807,-0.44739021046203303,0.1318215108258307,-0.294057881710257,17.1,-5.6,Overcast,-0.8922317829824812,1.1178400406776126,-0.6190327870786011,2,-5
Netherlands,Gelderland,Apeldoorn,"168,265",NL,1.4625066117450876,1.2622713469472042,0.8309596530919493,0.9168666739688242,,52.1795738,5.9300775,-0.24269993184977606,-0.4589969543164881,-0.44539910213773914,-0.9497254713544527,-0.4233351545216994,0.0015478379460830498,-0.3923475481606047,17.2,-5.3,Overcast,-0.7945169887379236,0.8518764688606841,-0.5789703946868436,2,-2
Netherlands,Gelderland,Arnhem,"167,671",NL,0.9923713220714416,0.9482067211458068,1.7107779088292827,1.139984451059907,,52.0056642,5.8762345,-0.2736274413075562,-0.3966587419250817,-0.4392739415401069,-0.9252887890367768,-0.39928009858136576,-0.028147572315143626,-0.3779770723737798,17.0,-4.2,Overcast,-0.6968021944933658,0.8576740399084642,-0.5393716200733328,2,0
Netherlands,North Brabant,Breda,"188,277",NL,1.0212139778796407,1.1370193830859325,1.4051318900049128,1.2143570434236015,,51.5887845,4.7760237,-0.2890911960364459,-0.43524906388166673,-0.3001744611110179,-0.8199196084009246,-0.2729910548946171,0.10856163839211426,-0.22703222746788762,17.9,-3.2,Overcast,-0.7945169887379236,0.6967914433325565,-0.46152184331057705,2,1
Netherlands,South Holland,Delft,"109,452",NL,1.7249747795996997,1.400609336883534,1.0118199588045609,1.0656118586962129,,51.9994572,4.3627245,-0.14991740347643637,-0.28504365688142097,-0.3274460094861896,-0.9648582792117285,-0.3868603686121727,0.188178434943887,-0.18721174876088345,18.0,-3.8,Overcast,-0.8433743858602023,1.226544497823496,-0.5393716200733328,2,-3
Netherlands,Overijssel,Deventer,"103,456",NL,1.5230761889423057,1.1744080290146703,0.48424491855991214,0.8424940816051297,,52.2694896,6.2364886,-0.38187372440978556,-0.4940250927078497,-0.392810223292352,-0.9117253094017338,-0.3715644906501133,0.04871113659626701,-0.3314649980713826,17.1,-5.0,Overcast,-0.6968021944933658,0.7409979225718829,-0.5922717073544866,2,-3
Netherlands,Gelderland,Ede,"123,545",NL,0.7068290295702703,0.7126582517947588,0.12489365611782356,0.8424940816051297,,52.0716825,5.7455106,-0.21177242239199612,-0.4388112474468899,-0.4110107004967456,-0.9228227018304059,-0.3515621886997275,0.005593033151946616,-0.3543919403572338,17.4,-4.9,Overcast,-0.7945169887379236,1.0721841686763414,-0.5525199970954511,0,-1
Netherlands,North Brabant,Eindhoven,"246,581",NL,1.5634559070737846,1.3463958002868641,1.3569551273478415,1.288729635787296,,51.4392648,5.478633,-0.33548246022311573,-0.39012807205550576,-0.2446688391239011,-0.6439306577644491,-0.17428688513944712,0.06443223614632826,-0.2206697267378428,18.1,-3.3,Overcast,-0.4769439074431112,0.5540262562809631,-0.435961003572731,2,0
Netherlands,Drenthe,Emmen,"109,311",NL,0.2684206612856435,0.42102681355060423,0.45976164573418743,-0.34746739621397993,,52.7528662,6.9525135,-0.13445364874754664,-0.3485692637945683,-0.48705019420163875,-1.0388408954028596,-0.42477322851813293,-0.030262106172754433,-0.42262427577254263,17.3,-4.3,Overcast,-0.6479447973710871,0.8699938783849979,-0.6868596013994439,0,-5
Netherlands,Overijssel,Enschede,"161,947",NL,1.3298303950273715,1.2005800811647869,0.9296825273892263,0.7681214892414354,,52.2233632,6.8705957,-0.11898989401865642,-0.3545062364032737,-0.4105148541626511,-0.864645462734656,-0.3275071327593945,-0.03936379538594784,-0.37600250318169637,17.0,-5.4,Overcast,-0.6479447973710871,0.9460869983871164,-0.5789703946868436,2,-2
Netherlands,Groningen,Groningen,"244,003",NL,0.8250839183838867,0.8827765907705157,0.6516789133680941,0.6193763045140467,,53.2190652,6.5680077,0.09750267218580254,-0.13127606631595193,-0.5712274012719584,-1.1894964047375243,-0.6442756139736727,-0.0012102496942786034,-0.44226026940492186,16.3,-4.2,Overcast,-0.770088290176784,0.9786983355308815,-0.7841232191273534,0,-1
Netherlands,North Holland,Haarlem,"167,752",NL,2.4258513157389383,2.075474395897251,1.0986960881861647,1.2143570434236015,,52.3837058,4.6435597,-0.2890911960364459,-0.27198231714226917,-0.3235667411076899,-1.0419795518473316,-0.44059204247889583,0.24904023554120053,-0.1246837243449246,16.9,-3.9,Overcast,-0.9166604815436207,1.326552598397709,-0.6190327870786011,2,-4
Netherlands,South Holland,The Hague,"565,817",NL,2.2585639120513834,2.0605189375257558,1.766852501430136,1.3631022281509904,,52.0799838,4.3113461,-0.1963086676631062,-0.3242276760988763,-0.29282426839385944,-0.9718081613387747,-0.37339476664557397,0.2404901638560795,-0.12391583632578232,17.6,-3.6,Overcast,-0.7456595916156448,1.3584392391605011,-0.5525199970954511,2,-2
Netherlands,Friesland,Leeuwarden,"128,845",NL,0.9923713220714416,0.9407289919600593,0.3989483551670647,-0.49621258094136866,,53.2005936,5.7918548,-0.11898989401865642,-0.14849328688119756,-0.5262512220264864,-1.1875907918962367,-0.64309900797659,0.08171625202592793,-0.3749055202972059,16.6,-4.3,Overcast,-0.770088290176784,1.0562408482949452,-0.7700601609673983,0,-8
Netherlands,South Holland,Leiden,"130,269",NL,1.7653544977311784,1.3893927431049127,1.8150292640872072,1.3631022281509904,,52.1518157,4.4811089,-0.21177242239199612,-0.3853784939685416,-0.3509841266399492,-1.0119381258788118,-0.4208512085278608,0.1915800763669997,-0.2052022680665264,17.3,-4.4,Overcast,-0.770088290176784,1.254807656681426,-0.565720455451608,2,-2
Netherlands,Limburg,Maastricht,"125,464",NL,1.580761500558704,1.312746018951,1.0386725806134203,0.8424940816051297,,50.8512438,5.6909768,-0.18084491293421648,-0.16096092935947867,-0.23437273583359622,-0.6418008551771299,-0.1787318411284221,0.05339988558488186,-0.16713696197470593,17.9,-1.7,Overcast,-0.6723734959322265,0.8917347698141747,-0.3355913879949705,2,-2
Netherlands,Gelderland,Nijmegen,"186,798",NL,1.312524801542452,1.280965669911573,0.7053841569858128,0.9912392663325185,,51.8425749,5.8389606,-0.39733747913867556,-0.5106486160122247,-0.33155861731602937,-0.8412176342741285,-0.28541078486381205,0.06645483374926014,-0.2635617575214214,17.5,-3.6,Overcast,-0.7456595916156448,0.7627388140010596,-0.5132244644240921,2,-1
Netherlands,South Holland,Rotterdam,"671,221",NL,2.347976145056801,2.12407963560461,1.2629709510168339,1.288729635787296,,51.9244424,4.47775,-0.33548246022311573,-0.3818163104033183,-0.2810697935326883,-0.886503962972941,-0.2847571148654328,0.18109934333362548,-0.16669816882091026,17.2,-2.6,Overcast,-0.8922317829824812,1.0569655446759176,-0.5262722760741603,2,-2
Netherlands,North Brabant,Tilburg,"229,940",NL,1.4567380805834478,1.4193036598479027,1.0007629968832659,1.2143570434236015,,51.5856184,5.0660616,-0.32001870549422584,-0.3123537308814656,-0.2759654930346612,-0.747282130685999,-0.23468599298963172,0.09293247509673193,-0.22056002844939376,18.1,-3.2,Overcast,-0.8189456872990629,0.5888116825676458,-0.46152184331057705,2,0
Netherlands,Utrecht,Utrecht,"374,409",NL,2.8902180742509445,2.3166311621376092,1.4540984356563622,1.3631022281509904,,52.0907006,5.1215634,-0.2736274413075562,-0.37053606244677817,-0.34870906698939996,-0.9163211991954283,-0.31626400878728295,0.09982769419763605,-0.2684981805016286,17.4,-4.6,Overcast,-0.9166604815436207,0.9823218174357444,-0.5525199970954511,2,-4
Netherlands,Limburg,Venlo,"103,688",NL,0.9692971974248824,0.8659517001025837,1.2977214027694752,-0.049977026759202514,,51.3924489,6.1511724,-0.2890911960364459,-0.42337511866425587,-0.24251044919902215,-0.6678068657170418,-0.16788091915533704,0.06277738356211113,-0.1925869648948863,17.4,-2.8,Overcast,-0.5502300031265295,0.5656213983765238,-0.435961003572731,2,-5
Netherlands,Overijssel,Zwolle,"133,065",NL,1.1048576797234182,0.9594233149244282,0.6145591126323179,0.7681214892414354,,52.5089759,6.0943765,-0.25816368657866595,-0.4120948707077157,-0.4111857050852505,-0.9677727459101667,-0.40790854255996495,0.06434029989164979,-0.33387836041726116,17.7,-3.9,Overcast,-0.7456595916156448,0.8214392208598367,-0.6324914706121765,2,-2
Norway,Oslo,Oslo,"717,710",NO,2.2614481776322033,2.32223945902692,1.3174659776289308,1.3631022281509904,,59.9133301,10.7389701,2.0613995227548263,3.161368942472042,-1.7650503691819186,-1.3389188704690025,-1.639161351505927,-1.927734466486881,-1.6524517875748328,9.0,-10.2,Overcast,-0.8678030844213419,1.0823299180099573,-2.4715399064725703,3,-4
Norway,Vestland,Bergen,"291,940",NO,1.04717236810702,1.4267813890336505,1.1381852379050756,1.2143570434236015,,60.3943055,5.3259192,2.1541820511281657,4.206869818865059,-1.4908473464279108,-2.0145146701416383,-1.4506429239735348,-0.8480350915399794,-1.4065082248720644,10.7,-8.9,Overcast,-0.8433743858602023,3.7455891180841046,-2.634317522774849,3,-7
Norway,Trøndelag,Trondheim,"214,565",NO,1.3154090671232719,1.5052975454839996,1.4232968988756118,0.8424940816051297,,63.4304475,10.3952118,3.020152315946002,3.5745822360379367,-1.8355772183489425,-1.8470449298544447,-2.0631317124542976,-1.3459618468799333,-1.7588591273704106,10.5,-10.4,Overcast,-0.8678030844213419,2.306342105472606,-3.8379379704647496,3,-9
Norway,Rogaland,Stavanger,"149,048",NO,1.647099608917562,1.6118551863809023,1.3387901184771427,0.7681214892414354,,58.9699675,5.7318101,1.3809943146836683,1.9995034029484038,-1.2476784707019064,-1.9816708723476977,-1.4241039220393625,-0.478175538967484,-0.987680159573595,10.6,-5.0,Overcast,-0.7945169887379236,2.849139694821051,-2.1665662202385096,3,-9
Norway,Østfold,Fredrikstad,"130,921",NO,1.0933206174001386,1.312746018951,0.564013000992112,-0.34746739621397993,,59.1862013,10.8680241,1.1181104842925393,1.6041010272086254,-1.3352099323852145,-1.446417853692175,-1.6539342934692838,-1.0059815770780223,-1.0180665854739814,9.2,-7.7,Overcast,-0.6968021944933658,0.3793744284665765,-2.2297704224835466,3,-7
Norway,Agder,Kristiansand,"116,986",NO,-0.23055728419620142,0.03405432818816829,1.0829004282986003,-0.49621258094136866,,58.0856276,7.931858,1.2882117863103286,2.8983610559063955,-1.2438867046176585,-1.6763244382497609,-1.3831841801408609,-0.7097629645031828,-1.0302430954918254,10.6,-6.8,Overcast,-0.5990874002488082,2.0367550517508146,-1.9243623591425512,3,-8
Norway,Buskerud,Drammen,"104,487",NO,0.30303184825548246,0.49019580851876915,0.8072661632606027,0.024395565604491843,,59.6964936,10.175642,2.1851095605859454,4.23121140656075,-2.068770832530231,-1.6469555815193426,-1.9384114767636584,-2.2120933022081655,-1.9028929801040115,8.7,-9.7,Overcast,-0.8433743858602023,0.9134756612433513,-2.403973917784105,3,-6
Moldova, Transnistria,Tiraspol,"133,807",MD,-1.7274911206417363,-1.743775785723313,-1.6039413185760927,-2.653017759488505,,46.8566229,29.6059359,-0.24269993184977606,-0.301667180185796,0.059605805421339524,0.9863771753928123,0.06927055625642574,-0.5884071083272707,-0.09714945394421336,17.2,-9.6,Overcast,0.20705965226879236,-1.4338159167267615,0.30330414794648175,4,-6
Lithuania,Vilnius,Vilnius,"592,156",LT,-0.06038561492782656,-0.12110855241609347,-0.3624024514135361,0.470631119786658,,54.6870458,25.2829111,2.0613995227548263,1.452708225686639,-1.1675263691671751,-0.7719430027497076,-1.0379156869972759,-1.313324476468987,-1.1976426836650749,12.7,-8.7,Overcast,-0.6968021944933658,0.5605485237097161,-1.0801388436721313,3,-2
Lithuania,Kaunas,Kaunas,"304,210",LT,-0.34015937626735815,-0.2706631361310446,-0.6846339131198486,0.0987681579681862,,54.8982139,23.9044817,1.6593418998036873,0.8993823785552991,-0.9803881291937981,-0.6498716860343414,-0.9286220632683703,-1.0698772740797335,-0.9954687380534769,13.8,-7.0,Overcast,-0.8189456872990629,0.12500599874520887,-1.126493629162727,0,-2
Lithuania,Šiauliai,Šiauliai,"110,463",LT,-0.8968226333656013,-0.9567447889233828,-0.7659815615408049,-0.34746739621397993,,55.9340823,23.3157775,1.8449069565503666,1.1053953280773756,-1.359418900461571,-1.0800918086730653,-1.3328515902657072,-1.3587409862802755,-1.316116835190048,10.1,-7.8,Overcast,-0.7456595916156448,0.0771760376010201,-1.3679789990005236,4,-4
Latvia,Riga,Riga,"620,974",LV,-0.47860412414671394,-0.3903068031030055,-0.6206614905752129,0.39625852742296364,,56.9493977,24.1051846,2.231500824772615,1.860578243904698,-1.3144427212160998,-1.0092478489264072,-1.3261841562822454,-1.371428189425939,-1.2067476416063458,9.0,-8.4,Overcast,-0.8678030844213419,0.6627307134268466,-1.6273278763448888,3,-2
